[{"display_name":"Städtisches Klinikum Dresden - Friedrichstadt","road":"Friedrichstraße","house_number":" 41","lat":51.05836395,"lon":13.717721559143309,"osm_id":23411134,"place_id":90972348,"postcode":"01067","city":"Dresden","Institutionskennzeichen":"261400949-01"},{"display_name":"Diakonissenkrankenhaus Dresden","road":"Holzhofgasse","house_number":" 29","lat":51.063117000000005,"lon":13.761497393823987,"osm_id":5378217,"place_id":235589609,"postcode":"01099","city":"Dresden","Institutionskennzeichen":"261400040-01"},{"display_name":"Städtisches Klinikum Dresden - Neustadt","road":"Industriestraße","house_number":" 40","lat":51.0906033,"lon":13.708354873335558,"osm_id":364588888,"place_id":171148816,"postcode":"01129","city":"Dresden","Institutionskennzeichen":"261400949-02"},{"display_name":"Krankenhaus St. Joseph-Stift Dresden GmbH","road":"Wintergartenstraße","house_number":" 15/17","lat":51.0472734,"lon":13.761998494944342,"osm_id":148503744,"place_id":121394690,"postcode":"01307","city":"Dresden","Institutionskennzeichen":"261400039-00"},{"display_name":"Universitätsklinikum Carl Gustav Carus an der Technischen Universität Dresden","road":"Fetscherstraße","house_number":" 74","lat":51.0542856,"lon":13.7798462,"osm_id":7287539991,"place_id":279666759,"postcode":"01307","city":"Dresden","Institutionskennzeichen":"261401030-00"},{"display_name":"ELBLANDKLINIKEN Stiftung & Co. KG, ELBLANDKLINIKUM Radebeul","road":"Heinrich-Zille-Straße","house_number":" 13","lat":51.107977649999995,"lon":13.650812030523023,"osm_id":478312798,"place_id":192375920,"postcode":"01445","city":"Radebeul","Institutionskennzeichen":"261400870-00"},{"display_name":"ELBLANDKLINIKEN Stiftung & Co. KG, ELBLANDKLINIKUM Riesa","road":"Weinbergstraße","house_number":" 8","lat":51.295993749999994,"lon":13.310453714991201,"osm_id":206495615,"place_id":136927794,"postcode":"01589","city":"Riesa","Institutionskennzeichen":"261400687-00"},{"display_name":"ELBLANDKLINIKEN Stiftung & Co. KG, ELBLANDKLINIKUM Meißen","road":"Nassauweg","house_number":" 7","lat":51.17341725,"lon":13.5052590781125,"osm_id":2223174,"place_id":279826404,"postcode":"01662","city":"Meißen","Institutionskennzeichen":"261420055-00"},{"display_name":"HELIOS Weißeritztal-Kliniken - Klinikum Freital","road":"Bürgerstraße","house_number":" 7","lat":50.9917887,"lon":13.645240841338058,"osm_id":298578620,"place_id":158031751,"postcode":"01705","city":"Freital","Institutionskennzeichen":"261401018-01"},{"display_name":"HELIOS Klinikum Pirna","road":"Struppener Straße","house_number":" 13","lat":50.958806100000004,"lon":13.953208732842402,"osm_id":29322395,"place_id":94712696,"postcode":"01796","city":"Pirna","Institutionskennzeichen":"261400892-00"},{"display_name":"Sächsische Schweiz Klinik Sebnitz","road":"Doktor-Steudner-Straße","house_number":" 75b","lat":50.9829703,"lon":14.267054324362036,"osm_id":42143807,"place_id":98678669,"postcode":"01855","city":"Sebnitz","Institutionskennzeichen":"261420033-00"},{"display_name":"Malteser Krankenhaus St. Johannes","road":"Nebelschützer Straße","house_number":" 40","lat":51.2640966,"lon":14.123895224078833,"osm_id":290598921,"place_id":157592132,"postcode":"01917","city":"Kamenz","Institutionskennzeichen":"261400017-00"},{"display_name":"Klinikum Niederlausitz GmbH - Lauchhammer","road":"Friedensstraße","house_number":" 18","lat":51.49849435,"lon":13.789269391124028,"osm_id":194999002,"place_id":133294558,"postcode":"01979","city":"Lauchhammer","Institutionskennzeichen":"261200856-02"},{"display_name":"Oberlausitz-Kliniken gGmbH, Krankenhaus Bautzen","road":"Am Stadtwall","house_number":" 3","lat":51.18462815,"lon":14.432061368571636,"osm_id":162129467,"place_id":124061469,"postcode":"02625","city":"Bautzen","Institutionskennzeichen":"261401041-00"},{"display_name":"Klinikum Oberlausitzer Bergland gGmbH - Ebersbach","road":"Röntgenstraße","house_number":" 23","lat":51.0046866,"lon":14.569926003623348,"osm_id":189403676,"place_id":129984069,"postcode":"02730","city":"Ebersbach-Neugersdorf","Institutionskennzeichen":"261400723-02"},{"display_name":"Klinikum Oberlausitzer Bergland gGmbH - Zittau","road":"Görlitzer Straße","house_number":" 8","lat":50.89937945,"lon":14.821209338409371,"osm_id":74130654,"place_id":102863429,"postcode":"02763","city":"Zittau","Institutionskennzeichen":"261400723-01"},{"display_name":"Malteser Krankenhaus St. Carolus","road":"Carolusstraße","house_number":" 212","lat":51.1442835,"lon":14.938212916737376,"osm_id":325206067,"place_id":165311519,"postcode":"02827","city":"Görlitz","Institutionskennzeichen":"261400734-00"},{"display_name":"Städtisches Klinikum Görlitz gGmbH","road":"Girbigsdorfer Straße","house_number":" 1-3","lat":51.161222800000004,"lon":14.970982572335053,"osm_id":120408509,"place_id":115556113,"postcode":"02828","city":"Görlitz","Institutionskennzeichen":"261401267-00"},{"display_name":"Kreiskrankenhaus Weißwasser gGmbH","road":"Karl-Liebknecht-Straße","house_number":" 1","lat":51.5027422,"lon":14.6311049,"osm_id":565716093,"place_id":4819667,"postcode":"02943","city":"Weißwasser","Institutionskennzeichen":"261400610-00"},{"display_name":"Lausitzer Seenland Klinikum GmbH","road":"Maria-Grollmuß-Straße","house_number":" 10","lat":51.4420184,"lon":14.272428738223773,"osm_id":2405092,"place_id":235776155,"postcode":"02977","city":"Hoyerswerda","Institutionskennzeichen":"261400621-00"},{"display_name":"Carl-Thiem-Klinikum Cottbus gGmbH","road":"Thiemstraße","house_number":" 111","lat":51.7423937,"lon":14.321518624827169,"osm_id":131823815,"place_id":118496091,"postcode":"03048","city":"Cottbus","Institutionskennzeichen":"261200721-00"},{"display_name":"Krankenhaus Spremberg","road":"Karl-Marx-Straße","house_number":" 80","lat":51.5652149,"lon":14.3739244,"osm_id":594022161,"place_id":4966040,"postcode":"03130","city":"Spremberg","Institutionskennzeichen":"261200594-01"},{"display_name":"Lausitz Klinik Forst GmbH","road":"Robert-Koch-Str.","house_number":" 35","lat":51.7549004,"lon":14.638020728871208,"osm_id":188065417,"place_id":132197166,"postcode":"03149","city":"Forst (Lausitz)","Institutionskennzeichen":"261201027-00"},{"display_name":"Krankenhaus Finsterwalde","road":"Kirchhainer Straße","house_number":" 42","lat":51.6355058,"lon":13.6983857,"osm_id":307350363,"place_id":1300257,"postcode":"03238","city":"Finsterwalde","Institutionskennzeichen":"261201312-02"},{"display_name":"Universitätsklinikum Leipzig","road":"Liebigstraße","house_number":" 18","lat":51.3312386,"lon":12.38467667358516,"osm_id":6041619,"place_id":236143088,"postcode":"04103","city":"Leipzig","Institutionskennzeichen":"261401052-00"},{"display_name":"Klinikum St. Georg gGmbH","road":"Delitzscher Straße","house_number":" 141","lat":51.38447695,"lon":12.376157898775695,"osm_id":5333051,"place_id":236052726,"postcode":"04129","city":"Leipzig","Institutionskennzeichen":"261400530-00"},{"display_name":"Ev. Diakonissenkrankenhaus Leipzig gGmbH","road":"Georg-Schwarz-Straße","house_number":" 49","lat":51.34247165,"lon":12.31934152480479,"osm_id":400738359,"place_id":177532036,"postcode":"04177","city":"Leipzig","Institutionskennzeichen":"261401290-00"},{"display_name":"St. Elisabeth-Krankenhaus Leipzig","road":"Biedermannstraße","house_number":" 84","lat":51.3030691,"lon":12.378565905298407,"osm_id":230197493,"place_id":143904499,"postcode":"04277","city":"Leipzig","Institutionskennzeichen":"261401212-00"},{"display_name":"HELIOS Klinik Schkeuditz","road":"Leipziger Straße","house_number":" 45","lat":51.394332399999996,"lon":12.230259435377508,"osm_id":573158875,"place_id":205511618,"postcode":"04435","city":"Schkeuditz","Institutionskennzeichen":"261430024-00"},{"display_name":"Sana Kliniken Leipziger Land - Sana Klinikum Borna","road":"Rudolf-Virchow-Straße","house_number":" 2","lat":51.1346876,"lon":12.505392948209622,"osm_id":124086076,"place_id":115688703,"postcode":"04552","city":"Borna","Institutionskennzeichen":"261401063-01"},{"display_name":"Klinikum Altenburger Land GmbH","road":"Am Waldessaum","house_number":" 10","lat":50.972397400000006,"lon":12.441019322833714,"osm_id":2780010,"place_id":235819270,"postcode":"04600","city":"Altenburg","Institutionskennzeichen":"261600623-00"},{"display_name":"Muldentalkliniken gGmbH - KH Grimma","road":"Kleiststraße","house_number":" 5","lat":51.2376743,"lon":12.718111638292683,"osm_id":331355956,"place_id":164133236,"postcode":"04668","city":"Grimma","Institutionskennzeichen":"261400563-01"},{"display_name":"HELIOS Klinik Leisnig","road":"Colditzer Straße","house_number":" 48","lat":51.156008549999996,"lon":12.920793578760929,"osm_id":265966761,"place_id":153179039,"postcode":"04703","city":"Leisnig","Institutionskennzeichen":"261400493-00"},{"display_name":"Klinikum Döbeln GmbH","road":"Sörmitzer Straße","house_number":" 10","lat":51.1186529,"lon":13.131071514354051,"osm_id":497928088,"place_id":194171794,"postcode":"04720","city":"Döbeln","Institutionskennzeichen":"261430046-00"},{"display_name":"Collm Klinik Oschatz GmbH","road":"Parkstraße","house_number":" 1","lat":51.2921056,"lon":13.11410058581081,"osm_id":449382601,"place_id":187064523,"postcode":"04758","city":"Oschatz","Institutionskennzeichen":"261400471-00"},{"display_name":"Muldentalkliniken gGmbH - KH Wurzen","road":"Kutusowstraße","house_number":" 70","lat":51.378834499999996,"lon":12.732273200446116,"osm_id":89058781,"place_id":105591337,"postcode":"04808","city":"Wurzen","Institutionskennzeichen":"261400563-02"},{"display_name":"Kreiskrankenhaus Torgau „Johann Kentmann“ gGmbH","road":"Christianistraße","house_number":" 1","lat":51.5615645,"lon":12.984629,"osm_id":26601595,"place_id":126116,"postcode":"04860","city":"Torgau","Institutionskennzeichen":"261430013-00"},{"display_name":"KH St. Elisabeth und St. Barbara Halle","road":"Mauerstraße","house_number":" 5","lat":51.47746845,"lon":11.968081109394788,"osm_id":303956275,"place_id":158247464,"postcode":"06110","city":"Halle (Saale)","Institutionskennzeichen":"261500677-00"},{"display_name":"BG Klinikum Bergmannstrost Halle","road":"Merseburger Straße","house_number":" 165","lat":51.4604623,"lon":11.985989030176398,"osm_id":24733974,"place_id":91410507,"postcode":"06112","city":"Halle (Saale)","Institutionskennzeichen":"261500553-00"},{"display_name":"Diakoniekrankenhaus Halle","road":"Mühlweg","house_number":" 7","lat":51.494096600000006,"lon":11.959569414576976,"osm_id":28975167,"place_id":94566477,"postcode":"06114","city":"Halle (Saale)","Institutionskennzeichen":"261500314-00"},{"display_name":"Krankenhaus Martha-Maria Halle-Dölau gGmbH","road":"Röntgenstr.","house_number":" 1","lat":51.5031341,"lon":11.876307922404267,"osm_id":184130233,"place_id":129363694,"postcode":"06120","city":"Halle","Institutionskennzeichen":"261500768-00"},{"display_name":"Universitätsklinikum Halle","road":"Ernst-Grube-Str.","house_number":" 40","lat":51.50197945,"lon":11.936651600363621,"osm_id":26383640,"place_id":91088731,"postcode":"06120","city":"Halle (Saale)","Institutionskennzeichen":"261500702-00"},{"display_name":"Carl-von-Basedow-Klinikum Saalekreis GmbH - KH Merseburg","road":"Weiße Mauer","house_number":" 52","lat":51.36643445,"lon":11.993742506910406,"osm_id":2387893,"place_id":235822846,"postcode":"06217","city":"Merseburg","Institutionskennzeichen":"261500461-01"},{"display_name":"HELIOS Klinikum Mansfeld Südharz GmbH Klinik - KH Lutherstadt Eisleben","road":"Hohetorstraße","house_number":" 25","lat":51.5327573,"lon":11.541415279716109,"osm_id":174171047,"place_id":128962098,"postcode":"06295","city":"Lutherstadt Eisleben","Institutionskennzeichen":"261500882-01"},{"display_name":"HELIOS Klinikum Mansfeld Südharz GmbH Klinik - KH Hettstedt Klinik","road":"Robert-Koch-Straße","house_number":" 8a","lat":51.6603221,"lon":11.49423157170762,"osm_id":166389721,"place_id":126822663,"postcode":"06333","city":"Hettstedt","Institutionskennzeichen":"261500882-02"},{"display_name":"HELIOS Klinik Köthen","road":"Hallesche Straße","house_number":" 29","lat":51.746789750000005,"lon":11.972722578579312,"osm_id":129102425,"place_id":117859173,"postcode":"06366","city":"Köthen","Institutionskennzeichen":"261500586-00"},{"display_name":"AMEOS Klinikum Aschersleben Staßfurt GmbH - Klinikum Aschersleben","road":"Eislebener Straße","house_number":" 7a","lat":51.74616235,"lon":11.457984152896126,"osm_id":158757492,"place_id":123582886,"postcode":"06449","city":"Aschersleben","Institutionskennzeichen":"261500358-01"},{"display_name":"Harzklinikum Dorothea Christiane Erxleben GmbH - Blankenburg - KH Quedlinburg","road":"Ditfurter Weg","house_number":" 24","lat":51.794924800000004,"lon":11.163537116103111,"osm_id":83133384,"place_id":105157703,"postcode":"06484","city":"Quedlinburg","Institutionskennzeichen":"261500984-01"},{"display_name":"HELIOS Klinikum Mansfeld Südharz GmbH Klinik - KH Sangerhausen","road":"Am Beinschuh","house_number":" 2a","lat":51.47202275,"lon":11.309604688665045,"osm_id":38754863,"place_id":96333913,"postcode":"06526","city":"Sangerhausen","Institutionskennzeichen":"261500882-03"},{"display_name":"DRK-Manniske-Krankenhaus - Bad Frankenhausen","road":"An der Wipper","house_number":" 2","lat":51.35797975,"lon":11.094650388866299,"osm_id":448361079,"place_id":184636896,"postcode":"06567","city":"Bad Frankenhausen","Institutionskennzeichen":"261601145-01"},{"display_name":"Klinikum Burgenlandkreis gGmbH - KH Naumburg","road":"Humboldtstraße","house_number":" 31","lat":51.1610137,"lon":11.814958712125307,"osm_id":107577774,"place_id":109414038,"postcode":"06618","city":"Naumburg","Institutionskennzeichen":"261500416-01"},{"display_name":"Asklepios Klinik Weißenfels","road":"Naumburger Straße","house_number":" 76","lat":51.193910450000004,"lon":11.95680780918136,"osm_id":194815022,"place_id":131313799,"postcode":"06667","city":"Weißenfels","Institutionskennzeichen":"261520023-00"},{"display_name":"Klinikum Burgenlandkreis gGmbH - KH Zeitz","road":"Lindenallee","house_number":" 1","lat":51.0308713,"lon":12.159312527071283,"osm_id":2652917,"place_id":235783953,"postcode":"06712","city":"Zeitz","Institutionskennzeichen":"261500416-02"},{"display_name":"Gesundheitszentrum Bitterfeld - Wolfen gGmbH - KH Bitterfeld","road":"Friedrich-Ludwig-Jahn-Str.","house_number":" 2","lat":51.63378295,"lon":12.333813379053463,"osm_id":26735250,"place_id":91242847,"postcode":"06749","city":"Bitterfeld-Wolfen","Institutionskennzeichen":"261500256-01"},{"display_name":"Diakonissenkrankenhaus Dessau gGmbH","road":"Gropiusallee","house_number":" 3","lat":51.837482449999996,"lon":12.226657415830868,"osm_id":32307297,"place_id":95969333,"postcode":"06846","city":"Dessau","Institutionskennzeichen":"261510043-00"},{"display_name":"Städtisches Klinikum Dessau","road":"Auenweg","house_number":" 38","lat":51.81556485,"lon":12.197712090721943,"osm_id":25785564,"place_id":90783110,"postcode":"06847","city":"Dessau-Roßlau","Institutionskennzeichen":"261500757-00"},{"display_name":"Paul-Gerhardt-Stiftung Lutherstadt Wittenberg","road":"Paul-Gerhardt-Straße","house_number":" 42-45","lat":51.87026535,"lon":12.656762816639176,"osm_id":143475661,"place_id":119131654,"postcode":"06886","city":"Luth. Wittenberg","Institutionskennzeichen":"261500611-00"},{"display_name":"Thüringen-Kliniken “Georgius Agricola“ GmbH - Saalfeld","road":"Rainweg","house_number":" 68","lat":50.6440668,"lon":11.344108458555304,"osm_id":304455456,"place_id":159423705,"postcode":"07318","city":"Saalfeld","Institutionskennzeichen":"261600188-01"},{"display_name":"Thüringen-Kliniken “Georgius Agricola“ GmbH - Pößneck","road":"Hohes Gäßchen","house_number":" 8","lat":50.6982584,"lon":11.59073228039669,"osm_id":40621068,"place_id":97535626,"postcode":"07381","city":"Pößneck","Institutionskennzeichen":"261600188-03"},{"display_name":"SRH Wald-Klinikum Gera gGmbH","road":"Straße des Friedens","house_number":" 122","lat":50.868439,"lon":12.051077,"osm_id":29333622,"place_id":152606,"postcode":"07548","city":"Gera","Institutionskennzeichen":"261600543-00"},{"display_name":"Waldkrankenhaus Rudolf Elle GmbH","road":"Klosterlausnitzer Str.","house_number":" 81","lat":50.957109700000004,"lon":11.883069217640353,"osm_id":10188746,"place_id":236462472,"postcode":"07607","city":"Eisenberg","Institutionskennzeichen":"261600304-00"},{"display_name":"Universitätsklinikum Jena","road":"Bachstr.","house_number":" 18","lat":50.9282739,"lon":11.579499996229114,"osm_id":57716588,"place_id":101108419,"postcode":"07743","city":"Jena","Institutionskennzeichen":"261600736-00"},{"display_name":"Kreiskrankenhaus Greiz GmbH","road":"Wichmannstr.","house_number":" 12","lat":50.662698750000004,"lon":12.198255629883452,"osm_id":25323416,"place_id":91646137,"postcode":"07973","city":"Greiz","Institutionskennzeichen":"261600315-00"},{"display_name":"Heinrich-Braun-Klinikum gGmbH - Zwickau","road":"Karl-Keil-Straße","house_number":" 35","lat":50.7223393,"lon":12.430990415898176,"osm_id":162613711,"place_id":125606802,"postcode":"08060","city":"Zwickau","Institutionskennzeichen":"261400379-01"},{"display_name":"Paracelsus-Klinik Zwickau","road":"Werdauer Straße","house_number":" 68","lat":50.72238745,"lon":12.471731274132534,"osm_id":41399504,"place_id":97573476,"postcode":"08060","city":"Zwickau","Institutionskennzeichen":"261400836-00"},{"display_name":"Heinrich-Braun-Klinikum gGmbH - Kirchberg","road":"Schneeberger Straße","house_number":" 36","lat":50.62607575,"lon":12.561627917772029,"osm_id":103154022,"place_id":109368032,"postcode":"08107","city":"Kirchberg","Institutionskennzeichen":"261400379-02"},{"display_name":"Klinikum Obergöltzsch Rodewisch","road":"Stiftstraße","house_number":" 10","lat":50.523138599999996,"lon":12.410852644122427,"osm_id":400767601,"place_id":178105847,"postcode":"08228","city":"Rodewisch","Institutionskennzeichen":"261400380-00"},{"display_name":"Paracelsus-Klinik Adorf/Schöneck - Schöneck","road":"Albertplatz","house_number":" 1","lat":50.39713415,"lon":12.336049619422074,"osm_id":112345508,"place_id":112266127,"postcode":"08261","city":"Schöneck","Institutionskennzeichen":"261401303-01"},{"display_name":"HELIOS Klinikum Aue","road":"Gartenstraße","house_number":" 6","lat":50.59234715,"lon":12.717110150804668,"osm_id":44687805,"place_id":99622964,"postcode":"08280","city":"Aue","Institutionskennzeichen":"261401381-00"},{"display_name":"Kliniken Erlabrunn gGmbH","road":"Am Märzenberg","house_number":" 1a","lat":50.47384005,"lon":12.70813154054379,"osm_id":97865593,"place_id":107604763,"postcode":"08359","city":"Breitenbrunn","Institutionskennzeichen":"261410020-00"},{"display_name":"Pleißental-Klinik GmbH","road":"Ronneburger Straße","house_number":" 106","lat":50.7425616,"lon":12.3661335,"osm_id":514339290,"place_id":4570807,"postcode":"08412","city":"Werdau","Institutionskennzeichen":"261400051-00"},{"display_name":"Paracelsus-Klinik Reichenbach","road":"Plauensche Straße","house_number":" 37","lat":50.6133605,"lon":12.310756725359713,"osm_id":667731483,"place_id":220705731,"postcode":"08468","city":"Reichenbach","Institutionskennzeichen":"261400119-00"},{"display_name":"HELIOS Vogtland-Klinikum Plauen","road":"Röntgenstraße","house_number":" 2","lat":50.491122000000004,"lon":12.153882063699045,"osm_id":199053738,"place_id":134330097,"postcode":"08529","city":"Plauen","Institutionskennzeichen":"261410315-00"},{"display_name":"DRK Krankenhaus Chemnitz-Rabenstein","road":"Unritzstraße","house_number":" 23","lat":50.82095285,"lon":12.825125969671028,"osm_id":32611814,"place_id":95339183,"postcode":"09117","city":"Chemnitz","Institutionskennzeichen":"261410166-00"},{"display_name":"Zeisigwaldkliniken Bethanien Chemnitz","road":"Zeisigwaldstraße","house_number":" 101","lat":50.84006395,"lon":12.962183239135936,"osm_id":205402586,"place_id":135738643,"postcode":"09130","city":"Chemnitz","Institutionskennzeichen":"261400197-00"},{"display_name":"DIAKOMED - Diakoniekrankenhaus Chemnitzer Land gGmbH","road":"Limbacher Straße","house_number":" 19b","lat":50.8830627,"lon":12.7926901,"osm_id":146511946,"place_id":352726,"postcode":"09232","city":"Hartmannsdorf","Institutionskennzeichen":"261400324-00"},{"display_name":"DRK Krankenhaus Lichtenstein gGmbH","road":"Hartensteiner Straße","house_number":" 42","lat":50.7485246,"lon":12.6355686,"osm_id":258988945,"place_id":733741,"postcode":"09350","city":"Lichtenstein","Institutionskennzeichen":"261400426-00"},{"display_name":"Kreiskrankenhaus Stollberg gGmbH","road":"Jahnsdorfer Straße","house_number":" 7","lat":50.71781995,"lon":12.788806556580841,"osm_id":2096492,"place_id":235637424,"postcode":"09366","city":"Stollberg","Institutionskennzeichen":"261400404-00"},{"display_name":"Klinikum Mittleres Erzgebirge gGmbH, Haus Zschopau","road":"Alte Marienberger Straße","house_number":" 52","lat":50.73522345000001,"lon":13.079118377095224,"osm_id":42807680,"place_id":97956540,"postcode":"09405","city":"Zschopau","Institutionskennzeichen":"261400814-00"},{"display_name":"EKA Erzgebirgsklinikum Annaberg gGmbH","road":"Chemnitzer Straße","house_number":" 15","lat":50.592102999999994,"lon":13.006717201697345,"osm_id":112887735,"place_id":111627923,"postcode":"09456","city":"Annaberg-Buchholz","Institutionskennzeichen":"261400790-00"},{"display_name":"Kreiskrankenhaus Freiberg gGmbH","road":"Donatsring","house_number":" 20","lat":50.920690199999996,"lon":13.351602708425393,"osm_id":357141688,"place_id":168618390,"postcode":"09599","city":"Freiberg","Institutionskennzeichen":"261400972-01"},{"display_name":"Bundeswehrkrankenhaus Berlin","road":"Scharnhorststr.","house_number":" 13","lat":52.53562625,"lon":13.371288438611874,"osm_id":24931203,"place_id":91680213,"postcode":"10115","city":"Berlin","Institutionskennzeichen":"261102323-00"},{"display_name":"Vivantes Netzwerk für Gesundheit GmbH - Vivantes Klinikum im Friedrichshain","road":"Landsberger Allee","house_number":" 49","lat":52.525510249999996,"lon":13.439369134200344,"osm_id":700483283,"place_id":225614608,"postcode":"10249","city":"Berlin","Institutionskennzeichen":"261101878-04"},{"display_name":"Evangelisches Krankenhaus Königin Elisabeth Herzberge gGmbH","road":"Herzbergstraße","house_number":" 79","lat":52.52801935,"lon":13.508989238184578,"osm_id":49876720,"place_id":99824600,"postcode":"10365","city":"Berlin","Institutionskennzeichen":"261101479-00"},{"display_name":"Sana Klinikum Lichtenberg","road":"Fanningerstraße","house_number":" 32","lat":52.51328445,"lon":13.49590121593346,"osm_id":46839073,"place_id":100071816,"postcode":"10365","city":"Berlin","Institutionskennzeichen":"261101527-00"},{"display_name":"Sankt Gertrauden-Krankenhaus GmbH","road":"Paretzer Straße","house_number":" 12","lat":52.4802288,"lon":13.317197992941242,"osm_id":119398219,"place_id":113691945,"postcode":"10713","city":"Berlin","Institutionskennzeichen":"261100321-00"},{"display_name":"Evangelische Elisabeth Klinik","road":"Lützowstraße","house_number":" 26","lat":52.5037269,"lon":13.3640559,"osm_id":775745348,"place_id":7027997,"postcode":"10785","city":"Berlin","Institutionskennzeichen":"261100025-00"},{"display_name":"Vivantes Netzwerk für Gesundheit GmbH - Vivantes Klinikum Am Urban","road":"Dieffenbachstraße","house_number":" 1","lat":52.493975500000005,"lon":13.40854278803702,"osm_id":305989452,"place_id":159815235,"postcode":"10967","city":"Berlin","Institutionskennzeichen":"261101878-03"},{"display_name":"St. Joseph Krankenhaus","road":"Wüsthoffstr.","house_number":" 15","lat":52.47814205,"lon":13.372949316293703,"osm_id":168967363,"place_id":124499611,"postcode":"12101","city":"Berlin","Institutionskennzeichen":"261100855-00"},{"display_name":"Vivantes Netzwerk für Gesundheit GmbH - Vivantes Auguste-Viktoria-Klinikum","road":"Rubensstraße","house_number":" 125","lat":52.46242555,"lon":13.3463991013061,"osm_id":32424425,"place_id":93538584,"postcode":"12157","city":"Berlin","Institutionskennzeichen":"261101878-01"},{"display_name":"Krankenhaus Bethel Berlin","road":"Promenadenstraße","house_number":" 3-5","lat":52.43241535,"lon":13.326632296857095,"osm_id":640582918,"place_id":214199911,"postcode":"12207","city":"Berlin","Institutionskennzeichen":"261100797-00"},{"display_name":"Vivantes Netzwerk für Gesundheit GmbH - Vivantes Klinikum Neukölln","road":"Rudower Straße","house_number":" 48","lat":52.43739825,"lon":13.459393787861796,"osm_id":138150297,"place_id":116977764,"postcode":"12351","city":"Berlin","Institutionskennzeichen":"261101878-06"},{"display_name":"Berlin Hedwig Kliniken - Krankenhaus Hedwigshöhe","road":"Höhensteig","house_number":" 1","lat":52.40592575,"lon":13.570114022383926,"osm_id":69869582,"place_id":103014684,"postcode":"12526","city":"Berlin","Institutionskennzeichen":"261110027-02"},{"display_name":"BG Klinikum Unfallkrankenhaus Berlin gGmbH","road":"Warener Straße","house_number":" 7","lat":52.51908495,"lon":13.568298954048181,"osm_id":158262343,"place_id":124414348,"postcode":"12683","city":"Berlin","Institutionskennzeichen":"261101754-00"},{"display_name":"HELIOS Klinikum Berlin-Buch","road":"Schwanebecker Chaussee","house_number":" 50","lat":52.63056,"lon":13.509523826665625,"osm_id":146170013,"place_id":120263409,"postcode":"13125","city":"Berlin","Institutionskennzeichen":"261101300-00"},{"display_name":"Evangelische Lungenklinik Berlin","road":"Lindenberger Weg","house_number":" 27","lat":52.6309268,"lon":13.50664989447705,"osm_id":16344228,"place_id":87222547,"postcode":"13125","city":"Berlin","Institutionskennzeichen":"261101491-00"},{"display_name":"Jüdisches Krankenhaus Berlin, Stiftung bürgerlichen Rechts","road":"Heinz-Galinski-Str.","house_number":" 1","lat":52.5552855,"lon":13.370174288443138,"osm_id":4610129,"place_id":81447110,"postcode":"13347","city":"Berlin","Institutionskennzeichen":"261100081-00"},{"display_name":"Dominikus-Krankenhaus Berlin-Hermsdorf GmbH","road":"Kurhausstr.","house_number":" 30","lat":52.6247457,"lon":13.294050249509745,"osm_id":49184262,"place_id":98687649,"postcode":"13467","city":"Berlin","Institutionskennzeichen":"261100946-00"},{"display_name":"Vivantes Netzwerk für Gesundheit GmbH - Vivantes Humboldt-Klinikum","road":"Am Nordgraben","house_number":" 2","lat":52.58983825,"lon":13.307600835115505,"osm_id":4765926,"place_id":80925637,"postcode":"13509","city":"Berlin","Institutionskennzeichen":"261101878-02"},{"display_name":"Vivantes Netzwerk für Gesundheit GmbH - Vivantes Klinikum Spandau","road":"Neue Bergstraße","house_number":" 6","lat":52.549706549999996,"lon":13.20690754478515,"osm_id":393510169,"place_id":176887463,"postcode":"13585","city":"Berlin","Institutionskennzeichen":"261101878-09"},{"display_name":"DRK Kliniken Berlin Westend","road":"Spandauer Damm","house_number":" 130","lat":52.52066095,"lon":13.277554181710645,"osm_id":53038853,"place_id":99867807,"postcode":"14050","city":"Berlin","Institutionskennzeichen":"261101561-00"},{"display_name":"Gemeinschaftskrankenhaus Havelhöhe","road":"Kladower Damm","house_number":" 221","lat":52.4622327,"lon":13.163991708031539,"osm_id":26775078,"place_id":91380061,"postcode":"14089","city":"Berlin","Institutionskennzeichen":"261110049-00"},{"display_name":"Krankenhaus Waldfriede e.V.","road":"Argentinische Allee","house_number":" 40","lat":52.444494000000006,"lon":13.240115594443138,"osm_id":31284439,"place_id":95752576,"postcode":"14163","city":"Berlin","Institutionskennzeichen":"261100456-00"},{"display_name":"HELIOS Klinikum Emil von Behring Berlin-Zehlendorf","road":"Walterhöferstr.","house_number":" 11","lat":52.42316735,"lon":13.253982080425217,"osm_id":30631242,"place_id":94305356,"postcode":"14165","city":"Berlin","Institutionskennzeichen":"261110083-00"},{"display_name":"Martin-Luther-Krankenhaus","road":"Caspar-Theyß-Straße","house_number":" 27-31","lat":52.4900806,"lon":13.290853837190713,"osm_id":132056990,"place_id":117751152,"postcode":"14193","city":"Berlin","Institutionskennzeichen":"261100310-00"},{"display_name":"St. Josefs-Krankenhaus Potsdam-Sanssouci","road":"Allee nach Sanssouci","house_number":" 7","lat":52.3994062,"lon":13.044304291258888,"osm_id":301029863,"place_id":159483245,"postcode":"14471","city":"Potsdam","Institutionskennzeichen":"261200162-00"},{"display_name":"Städtisches Klinikum Brandenburg GmbH","road":"Hochstr.","house_number":" 29","lat":52.41373945,"lon":12.546373704891693,"osm_id":40155995,"place_id":95878810,"postcode":"14770","city":"Brandenburg an der Havel","Institutionskennzeichen":"261200457-00"},{"display_name":"Evangelisches Krankenhaus Ludwigsfelde - Teltow","road":"Albert - Schweitzer - Str.","house_number":" 40-44","lat":52.31073165,"lon":13.257862663364302,"osm_id":39771902,"place_id":97580016,"postcode":"14974","city":"Ludwigsfelde","Institutionskennzeichen":"261200071-00"},{"display_name":"Krankenhaus Märkisch Oderland GmbH - Standort Strausberg","road":"Prötzeler Chaussee","house_number":" 5","lat":52.58871885,"lon":13.900891438579734,"osm_id":38246488,"place_id":95605622,"postcode":"15344","city":"Strausberg","Institutionskennzeichen":"261200219-01"},{"display_name":"HELIOS Klinikum Bad Saarow","road":"Pieskower Straße","house_number":" 33","lat":52.2837363,"lon":14.06262577666828,"osm_id":94120788,"place_id":107270134,"postcode":"15526","city":"Bad Saarow","Institutionskennzeichen":"261201356-00"},{"display_name":"Klinikum Dahme Spreewald GmbH - Achenbach Krankenhaus Königs Wusterhausen","road":"Köpenicker Straße","house_number":" 29","lat":52.30331975,"lon":13.628186861126839,"osm_id":574612976,"place_id":205279702,"postcode":"15711","city":"Königs Wusterhausen","Institutionskennzeichen":"261201414-01"},{"display_name":"Städtisches Krankenhaus Eisenhüttenstadt GmbH","road":"Friedrich-Engels-Straße","house_number":" 39","lat":52.1412225,"lon":14.624931838868935,"osm_id":77993932,"place_id":104710795,"postcode":"15890","city":"Eisenhüttenstadt","Institutionskennzeichen":"261200286-01"},{"display_name":"Klinikum Dahme Spreewald GmbH - Spreewaldklinik Lübben","road":"Schillerstraße","house_number":" 29","lat":51.9442236,"lon":13.874811328048464,"osm_id":60544771,"place_id":101373251,"postcode":"15907","city":"Lübben","Institutionskennzeichen":"261201414-02"},{"display_name":"Evangelisches Krankenhaus Luckau gGmbH","road":"Berliner Straße","house_number":" 24","lat":51.85382885,"lon":13.703282568168344,"osm_id":39087032,"place_id":97091473,"postcode":"15926","city":"Luckau","Institutionskennzeichen":"261200630-00"},{"display_name":"Immanuel Klinikum Bernau Herzzentrum Brandenburg","road":"Ladeburger Straße","house_number":" 17","lat":52.683470650000004,"lon":13.582175881421955,"osm_id":42990271,"place_id":97975089,"postcode":"16321","city":"Bernau","Institutionskennzeichen":"261200311-00"},{"display_name":"Oberhavel Kliniken - Klinik Hennigsdorf","road":"Marwitzer Straße","house_number":" 91","lat":52.6556872,"lon":13.191611517536291,"osm_id":27193183,"place_id":92631932,"postcode":"16761","city":"Hennigsdorf","Institutionskennzeichen":"261200435-02"},{"display_name":"Ruppiner Kliniken GmbH","road":"Fehrbelliner Straße","house_number":" 38","lat":52.90616135,"lon":12.797162434117988,"osm_id":145402146,"place_id":119294792,"postcode":"16816","city":"Neuruppin","Institutionskennzeichen":"261200140-01"},{"display_name":"Dietrich-Bonhoeffer-Klinikum Neubrandenburg - Neubrandenburg","road":"Salvador-Allende-Straße","house_number":" 30","lat":53.545332099999996,"lon":13.2945631280144,"osm_id":210572994,"place_id":137290296,"postcode":"17036","city":"Neubrandenburg","Institutionskennzeichen":"261320010-01"},{"display_name":"Kreiskrankenhaus Demmin GmbH","road":"Wollweberstraße","house_number":" 21","lat":53.9020312,"lon":13.041789796035138,"osm_id":147163625,"place_id":119933704,"postcode":"17109","city":"Demmin","Institutionskennzeichen":"261300130-00"},{"display_name":"DRK-Krankenhaus Teterow gGmbH - Teterow","road":"Goethestraße","house_number":" 14","lat":53.777295800000005,"lon":12.570495674972488,"osm_id":95860222,"place_id":106691461,"postcode":"17166","city":"Teterow","Institutionskennzeichen":"261300141-00"},{"display_name":"MediClin Müritz-Klinikum - Waren","road":"Weinbergstraße","house_number":" 19","lat":53.522382449999995,"lon":12.685975477083332,"osm_id":104506726,"place_id":110215142,"postcode":"17192","city":"Waren (Müritz)","Institutionskennzeichen":"261300050-01"},{"display_name":"DRK-Krankenhaus Mecklenburg-Strelitz gGmbH","road":"Penzliner Straße","house_number":" 56","lat":53.38068275,"lon":13.052362948591073,"osm_id":40608640,"place_id":97800178,"postcode":"17235","city":"Neustrelitz","Institutionskennzeichen":"261300345-00"},{"display_name":"Sana Krankenhaus Templin","road":"Robert-Koch-Straße","house_number":" 24","lat":53.119183899999996,"lon":13.506171166831233,"osm_id":25717952,"place_id":90933757,"postcode":"17268","city":"Templin","Institutionskennzeichen":"261201221-00"},{"display_name":"MSZ Uckermark gGmbH Kreiskrankenhaus Prenzlau","road":"Stettiner Str.","house_number":" 121","lat":53.3343791,"lon":13.8679526732475,"osm_id":500403672,"place_id":195840005,"postcode":"17291","city":"Prenzlau","Institutionskennzeichen":"261200117-00"},{"display_name":"Asklepios Klinik Pasewalk GmbH - Pasewalk","road":"Prenzlauer Chaussee","house_number":" 30","lat":53.48945075,"lon":13.985744342169653,"osm_id":264768831,"place_id":149528438,"postcode":"17309","city":"Pasewalk","Institutionskennzeichen":"261300744-00"},{"display_name":"AMEOS Klinika Anklam Pasewalk Ueckermünde - Anklam","road":"Ravensteinstraße","house_number":" 23","lat":53.7407362,"lon":14.0220984,"osm_id":4967758811,"place_id":60584728,"postcode":"17373","city":"Ueckermünde","Institutionskennzeichen":"261300802-02"},{"display_name":"AMEOS Klinika Anklam Pasewalk Ueckermünde - Ueckermünde","road":"Ravensteinstraße","house_number":" 23","lat":53.7407362,"lon":14.0220984,"osm_id":4967758811,"place_id":60584728,"postcode":"17373","city":"Ueckermünde","Institutionskennzeichen":"261300802-01"},{"display_name":"Klinikum Südstadt Rostock","road":"Südring","house_number":" 81","lat":54.07153275,"lon":12.109468630207946,"osm_id":2899739,"place_id":235782561,"postcode":"18059","city":"Rostock","Institutionskennzeichen":"261300118-00"},{"display_name":"Warnow-Klinik Bützow gGmbH","road":"Am Forsthof","house_number":" 3","lat":53.844043400000004,"lon":11.97487966495868,"osm_id":111788502,"place_id":110453323,"postcode":"18246","city":"Bützow","Institutionskennzeichen":"261300287-00"},{"display_name":"KMG Klinikum Güstrow GmbH","road":"Friedrich-Trendelenburg-Allee","house_number":" 1","lat":53.8109959,"lon":12.20035404245033,"osm_id":45982582,"place_id":99232073,"postcode":"18273","city":"Güstrow","Institutionskennzeichen":"261300276-00"},{"display_name":"BODDEN-KLINIKEN Ribnitz-Damgarten GmbH","road":"Sandhufe","house_number":" 2","lat":54.2365903,"lon":12.444707574259635,"osm_id":125003867,"place_id":115070022,"postcode":"18311","city":"Ribnitz-Damgarten","Institutionskennzeichen":"261300265-00"},{"display_name":"HELIOS Hanseklinikum Stralsund - BT Sund","road":"Große-Parower-Straße","house_number":" 47","lat":54.328730449999995,"lon":13.08061936233285,"osm_id":1633437,"place_id":235643168,"postcode":"18435","city":"Stralsund","Institutionskennzeichen":"261300367-01"},{"display_name":"DRK-Krankenhaus Grimmen GmbH","road":"Dorfstraße","house_number":" 39","lat":54.1202529,"lon":13.1071423,"osm_id":706634553,"place_id":6692543,"postcode":"18516","city":"Süderholz/OT Bartmannshagen","Institutionskennzeichen":"261300243-00"},{"display_name":"Sana-Krankenhaus Rügen GmbH","road":"Calandstraße","house_number":" 7-8","lat":54.419661899999994,"lon":13.428946630901521,"osm_id":149307165,"place_id":120394174,"postcode":"18528","city":"Bergen auf Rügen","Institutionskennzeichen":"261300312-00"},{"display_name":"Kreiskrankenhaus Prignitz gemeinnützige GmbH","road":"Dobberziner Str.","house_number":" 112","lat":53.073924250000005,"lon":11.873565043689617,"osm_id":5598745,"place_id":272830904,"postcode":"19348","city":"Perleberg","Institutionskennzeichen":"261200106-00"},{"display_name":"MediClin Krankenhaus Plau am See","road":"Quetziner Straße","house_number":" 88","lat":53.478518300000005,"lon":12.284448895951726,"osm_id":571294635,"place_id":205265166,"postcode":"19395","city":"Plau am See","Institutionskennzeichen":"261300619-00"},{"display_name":"Asklepios Klinik St. Georg","road":"Lohmühlenstraße","house_number":" 5","lat":53.55988755,"lon":10.01769413477199,"osm_id":24339487,"place_id":92669896,"postcode":"20099","city":"Hamburg","Institutionskennzeichen":"260200024-00"},{"display_name":"AGAPLESION DIAKONIEKLINIKUM HAMBURG","road":"Hohe Weide","house_number":" 17","lat":53.5717926,"lon":9.965901024860162,"osm_id":4233544,"place_id":235752582,"postcode":"20259","city":"Hamburg","Institutionskennzeichen":"260201194-00"},{"display_name":"Bethesda Krankenhaus Bergedorf","road":"Glindersweg","house_number":" 80","lat":53.48594205,"lon":10.23599811930438,"osm_id":236361307,"place_id":143593146,"postcode":"21029","city":"Hamburg","Institutionskennzeichen":"260200901-00"},{"display_name":"Krankenhaus Buchholz und Winsen gGmbH","road":"Steinbecker Straße","house_number":" 44","lat":53.333511,"lon":9.871430086278352,"osm_id":387578058,"place_id":174783109,"postcode":"21244","city":"Buchholz","Institutionskennzeichen":"260330112-00"},{"display_name":"Städtisches Klinikum Lüneburg gGmbH","road":"Bögelstraße","house_number":" 1","lat":53.2401919,"lon":10.39584527773684,"osm_id":29244712,"place_id":92374359,"postcode":"21339","city":"Lüneburg","Institutionskennzeichen":"260330361-00"},{"display_name":"Krankenhaus Buchholz und Winsen gGmbH","road":"Friedrich-Lichtenauer-Allee","house_number":" 1","lat":53.35055925,"lon":10.200166662040491,"osm_id":65085011,"place_id":101239862,"postcode":"21423","city":"Winsen/Luhe","Institutionskennzeichen":"260330599-00"},{"display_name":"Krankenhaus Reinbek St. Adolf-Stift","road":"Hamburger Straße","house_number":" 41","lat":53.5098825,"lon":10.24086762489814,"osm_id":46674753,"place_id":99761560,"postcode":"21465","city":"Reinbek","Institutionskennzeichen":"260101193-00"},{"display_name":"Johanniter-Krankenhaus Geesthacht","road":"Am runden Berge","house_number":" 3","lat":53.43152535,"lon":10.385808892553278,"osm_id":557123810,"place_id":203657759,"postcode":"21502","city":"Geesthacht","Institutionskennzeichen":"260100432-00"},{"display_name":"Elbe Kliniken Stade-Buxtehude GmbH","road":"Am Krankenhaus","house_number":" 1","lat":53.4616182,"lon":9.6754384,"osm_id":1711554763,"place_id":17332035,"postcode":"21614","city":"Buxtehude","Institutionskennzeichen":"260330123-00"},{"display_name":"Elbe Kliniken Stade-Buxtehude GmbH","road":"Bremervörder Straße","house_number":" 111","lat":53.5957806,"lon":9.442551841952817,"osm_id":188813162,"place_id":131398160,"postcode":"21682","city":"Stade","Institutionskennzeichen":"260330500-00"},{"display_name":"Capio Krankenhaus Land Hadeln","road":"Große Ortstraße","house_number":" 85","lat":53.8123012,"lon":8.88795594565784,"osm_id":108651054,"place_id":109855214,"postcode":"21762","city":"Otterndorf","Institutionskennzeichen":"260330407-00"},{"display_name":"Asklepios Klinik Wandsbek","road":"Alphonsstraße","house_number":" 14","lat":53.569900849999996,"lon":10.088066295919756,"osm_id":147870893,"place_id":120459482,"postcode":"22043","city":"Hamburg","Institutionskennzeichen":"260200104-00"},{"display_name":"Schön Klinik Hamburg Eilbek","road":"Dehnhaide","house_number":" 120","lat":53.578338599999995,"lon":10.051916725975136,"osm_id":362553371,"place_id":168364337,"postcode":"22081","city":"Hamburg","Institutionskennzeichen":"260200046-00"},{"display_name":"Kath. Marienkrankenhaus","road":"Alfredstraße","house_number":" 9","lat":53.559670999999994,"lon":10.032960936512405,"osm_id":1246399,"place_id":235351061,"postcode":"22087","city":"Hamburg","Institutionskennzeichen":"260200400-00"},{"display_name":"Israelitisches Krankenhaus","road":"Orchideenstieg","house_number":" 14","lat":53.6057601,"lon":9.991158175862203,"osm_id":56029210,"place_id":100950301,"postcode":"22297","city":"Hamburg","Institutionskennzeichen":"260200284-00"},{"display_name":"Ev. Amalie Sieveking-Krankenhaus","road":"Haselkamp","house_number":" 33","lat":53.6411315,"lon":10.15185682136226,"osm_id":8019750,"place_id":82822558,"postcode":"22359","city":"Hamburg","Institutionskennzeichen":"260200206-00"},{"display_name":"Albertinen-Krankenhaus","road":"Süntelstraße","house_number":" 11A","lat":53.6311975,"lon":9.9052693,"osm_id":269231702,"place_id":802317,"postcode":"22457","city":"Hamburg","Institutionskennzeichen":"260200171-01"},{"display_name":"Asklepios Westklinikum Hamburg","road":"Suurheid","house_number":" 20","lat":53.582308299999994,"lon":9.77757732058025,"osm_id":537135721,"place_id":200522997,"postcode":"22559","city":"Hamburg","Institutionskennzeichen":"260200091-00"},{"display_name":"Klinik Dr. Guth","road":"Jürgensallee","house_number":" 46-48","lat":53.556586249999995,"lon":9.853859599926748,"osm_id":350506129,"place_id":169626011,"postcode":"22609","city":"Hamburg","Institutionskennzeichen":"260200547-00"},{"display_name":"Asklepios Klinik Altona","road":"Paul-Ehrlich-Straße","house_number":" 1","lat":53.55501945,"lon":9.902399335522919,"osm_id":266443172,"place_id":152320950,"postcode":"22763","city":"Hamburg","Institutionskennzeichen":"260200068-00"},{"display_name":"Regio Kliniken GmbH - Standort Wedel","road":"Holmer Straße","house_number":" 155","lat":53.602121499999996,"lon":9.675325874892442,"osm_id":339383429,"place_id":166416196,"postcode":"22880","city":"Wedel","Institutionskennzeichen":"260100739-03"},{"display_name":"Katholisches Marien-Krankenhaus gGmbH","road":"Parade","house_number":" 3","lat":53.8623901,"lon":10.6853453,"osm_id":2927940978,"place_id":38623990,"postcode":"23552","city":"Lübeck","Institutionskennzeichen":"260100272-00"},{"display_name":"HELIOS - Agnes Karll Krankenhaus","road":"Am Hochkamp","house_number":" 21","lat":53.9223395,"lon":10.693935493750683,"osm_id":95890291,"place_id":107120561,"postcode":"23611","city":"Bad Schwartau","Institutionskennzeichen":"260100693-00"},{"display_name":"Sana Kliniken Ostholstein GmbH - Klinik Eutin","road":"Hospitalstraße","house_number":" 22","lat":54.132671349999995,"lon":10.600278897818413,"osm_id":3848487,"place_id":236055661,"postcode":"23701","city":"Eutin","Institutionskennzeichen":"260100626-01"},{"display_name":"Sana Kliniken Ostholstein GmbH - Klinik Middelburg","road":"Middelburger Straße","house_number":" 1","lat":54.082232,"lon":10.6837821,"osm_id":386850812,"place_id":3501963,"postcode":"23701","city":"Süsel","Institutionskennzeichen":"260100626-04"},{"display_name":"Schön Klinik Neustadt","road":"Am Kiebitzberg","house_number":" 10","lat":54.090417599999995,"lon":10.829299757695626,"osm_id":99501603,"place_id":107153777,"postcode":"23730","city":"Neustadt","Institutionskennzeichen":"260101809-00"},{"display_name":"Sana Kliniken Ostholstein GmbH - Klinik Oldenburg","road":"Mühlenkamp","house_number":" 5","lat":54.29005295,"lon":10.879989441605563,"osm_id":362382299,"place_id":171544722,"postcode":"23758","city":"Oldenburg","Institutionskennzeichen":"260100626-02"},{"display_name":"Segeberger Kliniken GmbH - Standort Segeberg, Akutklinik","road":"Krankenhausstraße","house_number":" 2","lat":53.9411722,"lon":10.309049079186961,"osm_id":628289785,"place_id":214991357,"postcode":"23795","city":"Bad Segeberg","Institutionskennzeichen":"260101126-03"},{"display_name":"DRK Krankenhaus Mölln-Ratzeburg gGmbH","road":"Röpersberg","house_number":" 2","lat":53.690061150000005,"lon":10.779154519787308,"osm_id":382927206,"place_id":175234703,"postcode":"23909","city":"Ratzeburg","Institutionskennzeichen":"260100454-00"},{"display_name":"Sana Hanse-Klinikum Wismar - Wismar","road":"Störtebekerstraße","house_number":" 6","lat":53.884636900000004,"lon":11.438659273939365,"osm_id":91872290,"place_id":106748207,"postcode":"23966","city":"Wismar","Institutionskennzeichen":"261300356-01"},{"display_name":"Universitätsklinikum Schleswig-Holstein - Campus Kiel","road":"Arnold-Heller-Str.","house_number":" 3","lat":54.3304953,"lon":10.142887327438675,"osm_id":1634097,"place_id":235629951,"postcode":"24105","city":"Kiel","Institutionskennzeichen":"260102343-01"},{"display_name":"Park-Klinik Kiel","road":"Goethestraße","house_number":" 11","lat":54.32670895,"lon":10.125818371345748,"osm_id":152938908,"place_id":120764325,"postcode":"24116","city":"Kiel","Institutionskennzeichen":"260100147-00"},{"display_name":"Städtisches Krankenhaus Kiel GmbH","road":"Chemnitzstraße","house_number":" 33","lat":54.322820300000004,"lon":10.116337063490711,"osm_id":13640801,"place_id":86661110,"postcode":"24116","city":"Kiel","Institutionskennzeichen":"260102434-00"},{"display_name":"Klinik Preetz","road":"Am Krankenhaus","house_number":" 5","lat":54.23894705,"lon":10.278120628242794,"osm_id":102878575,"place_id":109091960,"postcode":"24211","city":"Preetz","Institutionskennzeichen":"260100820-00"},{"display_name":"imland Kliniken Rendsburg/Eckernförde - Standort Eckernförde","road":"Schleswiger Straße","house_number":" 114-116","lat":54.482663849999994,"lon":9.816304236889577,"osm_id":30643921,"place_id":93720163,"postcode":"24340","city":"Eckernförde","Institutionskennzeichen":"260100875-01"},{"display_name":"Friedrich-Ebert-Krankenhaus Neumünster GmbH","road":"Friesenstraße","house_number":" 11","lat":54.065266550000004,"lon":9.99298980040623,"osm_id":243726872,"place_id":146526024,"postcode":"24534","city":"Neumünster","Institutionskennzeichen":"260101488-00"},{"display_name":"Klinik Klosterstraße GmbH","road":"Klosterstraße","house_number":" 63-65","lat":54.0787453,"lon":9.9948417,"osm_id":3151873784,"place_id":42547258,"postcode":"24536","city":"Neumünster","Institutionskennzeichen":"260102673-00"},{"display_name":"Paracelsus Klinik Henstedt-Ulzburg","road":"Wilstedter Str.","house_number":" 134","lat":53.749107050000006,"lon":10.007649289960273,"osm_id":28604754,"place_id":92135733,"postcode":"24558","city":"Henstedt-Ulzburg","Institutionskennzeichen":"260102081-00"},{"display_name":"Evangelisch-lutherische Diakonissenanstalt","road":"Knuthstraße","house_number":" 1","lat":54.7901483,"lon":9.42531037992289,"osm_id":27110659,"place_id":92469780,"postcode":"24939","city":"Flensburg","Institutionskennzeichen":"260100023-00"},{"display_name":"Regio Kliniken GmbH - Standort Pinneberg","road":"Fahltskamp","house_number":" 74","lat":53.654252,"lon":9.811810307742098,"osm_id":24968543,"place_id":90090490,"postcode":"25421","city":"Pinneberg","Institutionskennzeichen":"260100739-01"},{"display_name":"Klinikum Itzehoe","road":"Robert-Koch-Straße","house_number":" 2","lat":53.9420935,"lon":9.503728380812515,"osm_id":1730890,"place_id":235437046,"postcode":"25524","city":"Itzehoe","Institutionskennzeichen":"260101137-00"},{"display_name":"Westküstenkliniken Brunsbüttel und Heide gGmbH - Standort Heide","road":"Esmarchstraße","house_number":" 50","lat":54.1998975,"lon":9.077679293214988,"osm_id":168100021,"place_id":124278351,"postcode":"25746","city":"Heide","Institutionskennzeichen":"260101865-01"},{"display_name":"Klinikum Nordfriesland gGmbH - Standort Husum","road":"Erichsenweg","house_number":" 16","lat":54.48335865,"lon":9.050184014364135,"osm_id":26603381,"place_id":91761327,"postcode":"25813","city":"Husum","Institutionskennzeichen":"260100476-01"},{"display_name":"Klinikum Nordfriesland gGmbH - Standort Niebüll","road":"Gather Landstraße","house_number":" 75","lat":54.792936100000006,"lon":8.844024567073195,"osm_id":174392478,"place_id":126725585,"postcode":"25899","city":"Niebüll","Institutionskennzeichen":"260100476-02"},{"display_name":"Klinikum Nordfriesland gGmbH Föhr-Amrum","road":"Rebbelstieg","house_number":" 24","lat":54.6853049,"lon":8.564263069813848,"osm_id":123081327,"place_id":113079252,"postcode":"25938","city":"Wyk","Institutionskennzeichen":"260100498-00"},{"display_name":"Asklepios Nordseeklinik GmbH","road":"Norderstraße","house_number":" 81","lat":54.92546875,"lon":8.313285154065946,"osm_id":135328538,"place_id":118540611,"postcode":"25980","city":"Westerland","Institutionskennzeichen":"260100557-00"},{"display_name":"Evangelisches Krankenhaus","road":"Steinweg","house_number":" 13-17","lat":53.1426889,"lon":8.2050754,"osm_id":84711463,"place_id":296962,"postcode":"26122","city":"Oldenburg","Institutionskennzeichen":"260340784-00"},{"display_name":"Klinikum Oldenburg AöR","road":"Rahel-Straus-Straße","house_number":" 10","lat":53.112952699999994,"lon":8.220607311969239,"osm_id":353992106,"place_id":169395890,"postcode":"26133","city":"Oldenburg","Institutionskennzeichen":"260340740-00"},{"display_name":"St.-Marien-Hospital gGmbH","road":"St.-Marien-Straße","house_number":" 1","lat":53.02192185,"lon":7.8545049041824315,"osm_id":631615745,"place_id":211362941,"postcode":"26169","city":"Friesoythe","Institutionskennzeichen":"260340385-00"},{"display_name":"St. Johannes-Hospital gGmbH","road":"Bleichenpfad","house_number":" 9","lat":53.391942549999996,"lon":8.13958004821275,"osm_id":41173008,"place_id":97968329,"postcode":"26316","city":"Varel","Institutionskennzeichen":"260340977-00"},{"display_name":"Klinikum Wilhelmshaven","road":"Friedrich-Paffrath-Straße","house_number":" 100","lat":53.54574535,"lon":8.082819187823887,"osm_id":23783303,"place_id":89499455,"postcode":"26389","city":"Wilhelmshaven","Institutionskennzeichen":"260341080-00"},{"display_name":"Krankenhaus Wittmund gGmbH","road":"Dohuser Weg","house_number":" 10","lat":53.57196935,"lon":7.789064051431527,"osm_id":177143594,"place_id":128807417,"postcode":"26409","city":"Wittmund","Institutionskennzeichen":"260341091-00"},{"display_name":"Nordwest-Krankenhaus Sanderbusch gGmbH","road":"Am Gut Sanderbusch","house_number":" 1","lat":53.506815,"lon":8.009216350296576,"osm_id":245973560,"place_id":145554055,"postcode":"26452","city":"Sande","Institutionskennzeichen":"260340900-00"},{"display_name":"Ubbo-Emmius-Klinik gGmbH Klinik Norden","road":"Osterstraße","house_number":" 110","lat":53.600641249999995,"lon":7.219041287895724,"osm_id":2025879,"place_id":235521023,"postcode":"26506","city":"Norden","Institutionskennzeichen":"260340671-00"},{"display_name":"Ubbo-Emmius-Klinik gGmbH Klinik Aurich","road":"Wallinghausener Straße","house_number":" 8-12","lat":53.46814195,"lon":7.498663192037752,"osm_id":99697051,"place_id":109456031,"postcode":"26603","city":"Aurich","Institutionskennzeichen":"260340034-00"},{"display_name":"Ammerland-Klinik GmbH","road":"Lange Straße","house_number":" 38","lat":53.258002399999995,"lon":7.918285005970356,"osm_id":318875114,"place_id":278151028,"postcode":"26655","city":"Westerstede","Institutionskennzeichen":"260341444-00"},{"display_name":"Klinikum Emden - Hans-Susemihl-Krankenhaus gGmbH","road":"Bolardusstraße","house_number":" 20","lat":53.3755539,"lon":7.213214335692278,"osm_id":1836301,"place_id":234743944,"postcode":"26721","city":"Emden","Institutionskennzeichen":"260340329-00"},{"display_name":"Borromäus Hospital Leer gGmbH","road":"Kirchstraße","house_number":" 61-67","lat":53.22855455,"lon":7.444936479818746,"osm_id":88884780,"place_id":106216659,"postcode":"26789","city":"Leer","Institutionskennzeichen":"260340546-00"},{"display_name":"Klinikum Leer gGmbH","road":"Augustenstraße","house_number":" 35-37","lat":53.23587345,"lon":7.458228658169068,"osm_id":90991695,"place_id":107754115,"postcode":"26789","city":"Leer","Institutionskennzeichen":"260340535-00"},{"display_name":"Marien Hospital Papenburg Aschendorf gGmbH","road":"Hauptkanal rechts","house_number":" 75","lat":53.07692085,"lon":7.396254674985666,"osm_id":246507285,"place_id":146661206,"postcode":"26871","city":"Papenburg","Institutionskennzeichen":"260341616-00"},{"display_name":"St. Bernhard-Hospital gGmbH","road":"Claußenstraße","house_number":" 3","lat":53.32392505,"lon":8.482312737597589,"osm_id":6157081,"place_id":235947140,"postcode":"26919","city":"Brake","Institutionskennzeichen":"260340249-00"},{"display_name":"Alexianer Landkreis Diepholz GmbH - Klinik Bassum","road":"Marie-Hackfeld-Str.","house_number":" 6","lat":52.844270550000005,"lon":8.728513222094428,"osm_id":7671553,"place_id":236392015,"postcode":"27211","city":"Bassum","Institutionskennzeichen":"260320212-00"},{"display_name":"Aller-Weser-Klinik gGmbH - Krankenhaus Verden","road":"Eitzer Straße","house_number":" 20","lat":52.9136901,"lon":9.2326626605342,"osm_id":322188009,"place_id":163075380,"postcode":"27283","city":"Verden","Institutionskennzeichen":"260330566-00"},{"display_name":"AGAPLESION Diakonieklinikum Rotenburg gGmbH","road":"Elise-Averdieck-Straße","house_number":" 17","lat":53.105219950000006,"lon":9.412895981134582,"osm_id":29559957,"place_id":93084751,"postcode":"27356","city":"Rotenburg","Institutionskennzeichen":"260330452-00"},{"display_name":"OsteMed Kliniken und Pflege GmbH - Martin-Luther-Krankenhaus Zeven","road":"Dr.-Otto-Straße","house_number":" 2","lat":53.302563500000005,"lon":9.28291845370818,"osm_id":2819229,"place_id":235597145,"postcode":"27404","city":"Zeven","Institutionskennzeichen":"260330602-00"},{"display_name":"OsteMed Kliniken und Pflege GmbH - Klinik Bremervörde","road":"Gnarrenburger Straße","house_number":" 117","lat":53.471218449999995,"lon":9.135306457643695,"osm_id":90964354,"place_id":106699040,"postcode":"27432","city":"Bremervörde","Institutionskennzeichen":"260330098-00"},{"display_name":"HELIOS Klinik Cuxhaven","road":"Altenwalder Chaussee","house_number":" 10","lat":53.85275025,"lon":8.692785542878212,"osm_id":1432426,"place_id":235625844,"postcode":"27474","city":"Cuxhaven","Institutionskennzeichen":"260330167-00"},{"display_name":"Klinikum Bremerhaven Reinkenheide gGmbH","road":"Postbrookstraße","house_number":" 103","lat":53.5376557,"lon":8.636964070531654,"osm_id":103959963,"place_id":109370764,"postcode":"27574","city":"Bremerhaven","Institutionskennzeichen":"260400184-00"},{"display_name":"Kreiskrankenhaus Osterholz","road":"Am Krankenhaus","house_number":" 4","lat":53.2335347,"lon":8.794086435471169,"osm_id":24680273,"place_id":91414621,"postcode":"27711","city":"Osterholz-Scharmbeck","Institutionskennzeichen":"260330394-00"},{"display_name":"Josef-Hospital Delmenhorst gGmbH","road":"Wildeshauser Straße","house_number":" 92","lat":53.04439255,"lon":8.592869186445013,"osm_id":242127252,"place_id":144619432,"postcode":"27753","city":"Delmenhorst","Institutionskennzeichen":"260300081-00"},{"display_name":"Stadtkrankenhaus Delmenhorst GmbH","road":"Wildeshauser Straße","house_number":" 92","lat":53.04439255,"lon":8.592869186445013,"osm_id":242127252,"place_id":144619432,"postcode":"27753","city":"Delmenhorst","Institutionskennzeichen":"260300332-00"},{"display_name":"Krankenhaus Johanneum","road":"Feldstraße","house_number":" 1","lat":52.8937444,"lon":8.432467445680967,"osm_id":328483752,"place_id":164863447,"postcode":"27793","city":"Wildeshausen","Institutionskennzeichen":"260341057-00"},{"display_name":"Rotes Kreuz Krankenhaus Bremen gGmbH","road":"St.-Pauli-Deich","house_number":" 24","lat":53.069205,"lon":8.802614635779495,"osm_id":241190060,"place_id":145907267,"postcode":"28199","city":"Bremen","Institutionskennzeichen":"260400093-00"},{"display_name":"Gesundheit Nord gGmbH - Klinikverbund Bremen - Klinikum Bremen-Mitte","road":"St.-Jürgen-Straße","house_number":" 1","lat":53.07456915,"lon":8.840023958432678,"osm_id":48894118,"place_id":98483348,"postcode":"28205","city":"Bremen","Institutionskennzeichen":"260400015-00"},{"display_name":"Krankenhaus St. Joseph-Stift GmbH","road":"Schwachhauser Heerstraße","house_number":" 54","lat":53.0832424,"lon":8.835040903092741,"osm_id":122225530,"place_id":113360685,"postcode":"28209","city":"Bremen","Institutionskennzeichen":"260400082-00"},{"display_name":"Ev. Diakonie-Krankenhaus gGmbH - DIAKO","road":"Gröpelinger Heerstraße","house_number":" 406-408","lat":53.12571265,"lon":8.745777819085825,"osm_id":240888276,"place_id":145841571,"postcode":"28239","city":"Bremen","Institutionskennzeichen":"260400071-00"},{"display_name":"Gesundheit Nord gGmbH - Klinikverbund Bremen - Klinikum Links der Weser","road":"Senator-Weßling-Straße","house_number":" 1","lat":53.035726350000004,"lon":8.818760238081673,"osm_id":205478690,"place_id":135757684,"postcode":"28277","city":"Bremen","Institutionskennzeichen":"260400048-00"},{"display_name":"Gesundheit Nord gGmbH - Klinikverbund Bremen - Klinikum Bremen-Nord","road":"Hammersbecker Straße","house_number":" 228","lat":53.18347505,"lon":8.594276460443854,"osm_id":26969718,"place_id":92396612,"postcode":"28755","city":"Bremen","Institutionskennzeichen":"260400037-00"},{"display_name":"Klinik Lilienthal","road":"Moorhauser Landstraße","house_number":" 3c","lat":53.149428400000005,"lon":8.906541975000003,"osm_id":399142256,"place_id":178276020,"postcode":"28865","city":"Lilienthal","Institutionskennzeichen":"260330269-00"},{"display_name":"Allgemeines Krankenhaus Celle","road":"Siemensplatz","house_number":" 4","lat":52.6285336,"lon":10.0854833,"osm_id":252367708,"place_id":698725,"postcode":"29223","city":"Celle","Institutionskennzeichen":"260330134-00"},{"display_name":"Altmark-Klinikum gGmbH - KH Salzwedel","road":"Brunnenstr.","house_number":" 1","lat":52.8561189,"lon":11.145311369550072,"osm_id":123188511,"place_id":113113440,"postcode":"29410","city":"Salzwedel","Institutionskennzeichen":"261500290-02"},{"display_name":"Capio Elbe-Jeetzel-Klinik Dannenberg","road":"Hermann-Löns-Straße","house_number":" 2","lat":53.08246805,"lon":11.07929550263352,"osm_id":90189324,"place_id":105544970,"postcode":"29451","city":"Dannenberg (Elbe)","Institutionskennzeichen":"260330190-00"},{"display_name":"HELIOS Klinikum Uelzen GmbH","road":"Hagenskamp","house_number":" 34","lat":52.971977100000004,"lon":10.53228582429984,"osm_id":2145287,"place_id":235792095,"postcode":"29525","city":"Uelzen","Institutionskennzeichen":"260330793-00"},{"display_name":"Herz-Kreislauf-Klinik Bevensen AG","road":"Römstedter Straße","house_number":" 25","lat":53.08512075,"lon":10.604447223332091,"osm_id":219840701,"place_id":139707092,"postcode":"29549","city":"Bad Bevensen","Institutionskennzeichen":"260330646-00"},{"display_name":"Heidekreis-Klinikum GmbH - Krankenhaus Walsrode","road":"Robert-Koch-Straße","house_number":" 4","lat":52.8591518,"lon":9.586529627536923,"osm_id":1658563,"place_id":235721355,"postcode":"29664","city":"Walsrode","Institutionskennzeichen":"260330203-00"},{"display_name":"DRK-Krankenhaus Clementinenhaus","road":"Lützerodestraße","house_number":" 1","lat":52.386352099999996,"lon":9.745053696447084,"osm_id":169334898,"place_id":126656721,"postcode":"30161","city":"Hannover","Institutionskennzeichen":"260320494-00"},{"display_name":"Klinikum Region Hannover GmbH - Klinikum Nordstadt","road":"Haltenhoffstraße","house_number":" 41","lat":52.3918803,"lon":9.714704201470587,"osm_id":164207355,"place_id":126379759,"postcode":"30167","city":"Hannover","Institutionskennzeichen":"260320586-00"},{"display_name":"DIAKOVERE Krankenhaus gGmbH","road":"Humboldtstraße","house_number":" 5","lat":52.37121315,"lon":9.724489928919954,"osm_id":62061812,"place_id":101405394,"postcode":"30169","city":"Hannover","Institutionskennzeichen":"260320531-00"},{"display_name":"DIAKOVERE Krankenhaus gGmbH","road":"Marienstraße","house_number":" 72-90","lat":52.369580299999996,"lon":9.754379926702565,"osm_id":159302953,"place_id":121751614,"postcode":"30171","city":"Hannover","Institutionskennzeichen":"260320520-00"},{"display_name":"Sophien-Klinik GmbH","road":"Bischofsholer Damm","house_number":" 160","lat":52.35948365,"lon":9.725111995184093,"osm_id":4147743,"place_id":235513613,"postcode":"30173","city":"Hannover","Institutionskennzeichen":"260320450-00"},{"display_name":"Klinikum Region Hannover GmbH - Klinikum Siloah-Oststadt-Heidehaus","road":"Stadionbrücke","house_number":" 4","lat":52.3587218,"lon":9.814269177780282,"osm_id":8907347,"place_id":236498823,"postcode":"30459","city":"Hannover","Institutionskennzeichen":"260321781-00"},{"display_name":"Vinzenzkrankenhaus Hannover gGmbH","road":"Lange-Feld-Straße","house_number":" 31","lat":52.38359095,"lon":9.804349751361295,"osm_id":10723649,"place_id":277465501,"postcode":"30559","city":"Hannover","Institutionskennzeichen":"260320600-00"},{"display_name":"Medizinische Hochschule Hannover","road":"Carl-Neuberg-Straße","house_number":" 1","lat":52.433399800000004,"lon":9.758146776426235,"osm_id":1855094,"place_id":235447913,"postcode":"30625","city":"Hannover","Institutionskennzeichen":"260320597-00"},{"display_name":"Paracelsus-Klinik Am Silbersee","road":"Oertzeweg","house_number":" 24","lat":52.306460650000005,"lon":9.798887387393943,"osm_id":53672633,"place_id":100031792,"postcode":"30851","city":"Langenhagen","Institutionskennzeichen":"260320699-00"},{"display_name":"Klinikum Region Hannover GmbH - Klinikum Agnes Karll Laatzen","road":"Hildesheimer Straße","house_number":" 158","lat":52.496355300000005,"lon":9.861978102969632,"osm_id":58691414,"place_id":101509355,"postcode":"30880","city":"Laatzen","Institutionskennzeichen":"260321484-00"},{"display_name":"Klinikum Region Hannover GmbH - Klinikum Großburgwedel","road":"Fuhrberger Straße","house_number":" 8","lat":52.30433585,"lon":9.598449756566534,"osm_id":28555083,"place_id":94373561,"postcode":"30938","city":"Burgwedel","Institutionskennzeichen":"260321495-00"},{"display_name":"Klinikum Region Hannover GmbH - Klinikum Robert-Koch Gehrden","road":"Von-Reden-Straße","house_number":" 1","lat":51.9943818,"lon":9.832983352225503,"osm_id":122747020,"place_id":115220914,"postcode":"30989","city":"Gehrden","Institutionskennzeichen":"260321451-00"},{"display_name":"AMEOS Klinikum Alfeld","road":"Landrat-Beushausen-Straße","house_number":" 26","lat":52.14715895,"lon":9.947437797112133,"osm_id":2168133,"place_id":235536499,"postcode":"31061","city":"Alfeld (Leine)","Institutionskennzeichen":"260320018-00"},{"display_name":"St. Bernward-Krankenhaus","road":"Treibestraße","house_number":" 9","lat":52.14715895,"lon":9.947437797112133,"osm_id":2168133,"place_id":235536499,"postcode":"31134","city":"Hildesheim","Institutionskennzeichen":"260320622-00"},{"display_name":"Klinikum Peine gGmbH","road":"Virchowstraße","house_number":" 8h","lat":52.38013695,"lon":9.98374682907604,"osm_id":28609595,"place_id":92658114,"postcode":"31221","city":"Peine","Institutionskennzeichen":"260310642-00"},{"display_name":"Klinikum Region Hannover GmbH - Klinikum Lehrte","road":"Manskestraße","house_number":" 22","lat":52.49363355,"lon":9.466314646996048,"osm_id":97542560,"place_id":107095790,"postcode":"31275","city":"Lehrte","Institutionskennzeichen":"260321521-00"},{"display_name":"Klinikum Region Hannover GmbH - Klinikum Neustadt am Rübenberge","road":"Lindenstraße","house_number":" 75","lat":52.63571745,"lon":9.224453959568812,"osm_id":68730321,"place_id":102775394,"postcode":"31535","city":"Neustadt","Institutionskennzeichen":"260321510-00"},{"display_name":"HELIOS Kliniken Mittelweser GmbH - Krankenhaus Nienburg","road":"Ziegelkampstraße","house_number":" 39","lat":52.2639141,"lon":9.105367390435063,"osm_id":292291179,"place_id":154425024,"postcode":"31582","city":"Nienburg","Institutionskennzeichen":"260321304-00"},{"display_name":"AGAPLESION Ev. Klinikum Schaumburg gGmbH","road":"Zum Schaumburger Klinikum","house_number":" 1","lat":52.10753955,"lon":9.351581383413528,"osm_id":100575709,"place_id":108709621,"postcode":"31683","city":"Vehlen Stadt Obernkirchen","Institutionskennzeichen":"260300229-00"},{"display_name":"Sana Klinikum Hameln-Pyrmont","road":"Saint-Maur-Platz","house_number":" 1","lat":51.9852832,"lon":9.273853662480128,"osm_id":7690816,"place_id":236153205,"postcode":"31785","city":"Hameln","Institutionskennzeichen":"260320336-00"},{"display_name":"AGAPLESION Ev. Bathildiskrankenhaus Bad Pyrmont gGmbH","road":"Maulbeerallee","house_number":" 4","lat":51.9852832,"lon":9.273853662480128,"osm_id":7690816,"place_id":236153205,"postcode":"31812","city":"Bad Pyrmont","Institutionskennzeichen":"260321703-00"},{"display_name":"Katholische Hospitalvereinigung Ostwestfalen gem. GmbH - Mathilden Hospital Herford","road":"Renntormauer","house_number":" 1-3","lat":52.26125330000001,"lon":8.889091544640559,"osm_id":38842507,"place_id":98208558,"postcode":"32052","city":"Herford","Institutionskennzeichen":"260571421-02"},{"display_name":"Lukas-Krankenhaus Bünde GmbH","road":"Hindenburgstraße","house_number":" 56","lat":52.19809325,"lon":8.594541354909442,"osm_id":245905758,"place_id":145538975,"postcode":"32257","city":"Bünde","Institutionskennzeichen":"260570282-00"},{"display_name":"Krankenhaus Lübbecke-Rahden - Krankenhaus Lübbecke","road":"Virchowstraße","house_number":" 65","lat":52.03789135,"lon":8.900426473555001,"osm_id":295545841,"place_id":156869751,"postcode":"32312","city":"Lübbecke","Institutionskennzeichen":"260570681-01"},{"display_name":"Johannes Wesling Klinikum Minden","road":"Hans-Nolte-Straße","house_number":" 1","lat":51.94093735,"lon":8.879380771578212,"osm_id":32197734,"place_id":95166981,"postcode":"32429","city":"Minden","Institutionskennzeichen":"260570692-00"},{"display_name":"Klinikum Lippe GmbH  - Standort Lemgo","road":"Rintelner Straße","house_number":" 85","lat":51.72295345,"lon":8.74653911545532,"osm_id":38576170,"place_id":95764207,"postcode":"32657","city":"Lemgo","Institutionskennzeichen":"260570486-02"},{"display_name":"Klinikum Lippe GmbH  - Standort Detmold","road":"Röntgenstraße","house_number":" 18","lat":51.67794145,"lon":8.617716584995232,"osm_id":3221879,"place_id":278174840,"postcode":"32756","city":"Detmold","Institutionskennzeichen":"260570486-01"},{"display_name":"Klinikum Weser-Egge - St.-Josef Hospital Bad Driburg","road":"Elmarstraße","house_number":" 38","lat":51.897424099999995,"lon":8.38505634630236,"osm_id":107489926,"place_id":110624196,"postcode":"33014","city":"Bad Driburg","Institutionskennzeichen":"260570351-02"},{"display_name":"Brüderkrankenhaus St. Josef","road":"Husener Straße","house_number":" 46","lat":51.8829804,"lon":8.38014359822347,"osm_id":7944641,"place_id":235888267,"postcode":"33098","city":"Paderborn","Institutionskennzeichen":"260570885-00"},{"display_name":"St. Johannisstift Ev. Krankenhaus Paderborn GmbH","road":"Reumontstraße","house_number":" 28","lat":52.0417499,"lon":8.5407385,"osm_id":3205936276,"place_id":43874516,"postcode":"33102","city":"Paderborn","Institutionskennzeichen":"260570896-00"},{"display_name":"St. Vincenz-Krankenhaus GmbH - St.- Josefs-Krankenhaus","road":"Dr.-Krismann-Straße","house_number":" 12","lat":52.0232573,"lon":8.5232445,"osm_id":1389121499,"place_id":14977414,"postcode":"33154","city":"Salzkotten","Institutionskennzeichen":"260570874-02"},{"display_name":"Klinikum Gütersloh gem. GmbH","road":"Reckenberger Straße","house_number":" 19","lat":52.02309675,"lon":8.521346002023273,"osm_id":164683006,"place_id":125304005,"postcode":"33332","city":"Gütersloh","Institutionskennzeichen":"260570113-00"},{"display_name":"Sankt Elisabeth Hospital GmbH - St.-Elisabeth-Hospital","road":"Stadtring","house_number":" 130","lat":51.8829804,"lon":8.38014359822347,"osm_id":7944641,"place_id":235888267,"postcode":"33332","city":"Gütersloh","Institutionskennzeichen":"260570124-01"},{"display_name":"Sankt Elisabeth Hospital GmbH - St. Lucia Hospital","road":"Dechant-Budde-Weg","house_number":" 3","lat":52.014400800000004,"lon":8.54461553803279,"osm_id":689365264,"place_id":222300271,"postcode":"33428","city":"Harsewinkel","Institutionskennzeichen":"260570124-02"},{"display_name":"Evangelisches Klinikum Bethel - Standort Johannesstift","road":"Schildescher Straße","house_number":" 99","lat":51.982404200000005,"lon":8.532312415179618,"osm_id":609619809,"place_id":211565612,"postcode":"33611","city":"Bielefeld","Institutionskennzeichen":"260570044-02"},{"display_name":"Katholische Hospitalvereinigung Ostwestfalen gem. GmbH - Franziskus Hospital Bielefeld","road":"Kiskerstraße","house_number":" 26","lat":52.054682549999995,"lon":8.354749322760444,"osm_id":39655370,"place_id":97089202,"postcode":"33615","city":"Bielefeld","Institutionskennzeichen":"260571421-01"},{"display_name":"Klinik Dr. Hartog","road":"Kiskerstraße","house_number":" 15","lat":51.30967685,"lon":9.491933521537309,"osm_id":61671273,"place_id":102886142,"postcode":"33615","city":"Bielefeld","Institutionskennzeichen":"260570088-00"},{"display_name":"Evangelisches Klinikum Bethel - Standort Bethel","road":"Kantensiek","house_number":" 11","lat":51.3142792,"lon":9.462712873685025,"osm_id":67713251,"place_id":103961494,"postcode":"33617","city":"Bielefeld","Institutionskennzeichen":"260570044-01"},{"display_name":"Klinikum Bielefeld gGmbH - Standort Mitte","road":"Teutoburger Str.","house_number":" 50","lat":51.3115479,"lon":9.454291822855383,"osm_id":47994189,"place_id":97908709,"postcode":"33647","city":"Bielefeld","Institutionskennzeichen":"260570022-01"},{"display_name":"Klinikum Bielefeld gGmbH - Standort Rosenhöhe","road":"An der Rosenhöhe","house_number":" 27","lat":51.982404200000005,"lon":8.532312415179618,"osm_id":609619809,"place_id":211565612,"postcode":"33647","city":"Bielefeld","Institutionskennzeichen":"260570022-02"},{"display_name":"Klinikum Bielefeld gGmbH - Standort Halle","road":"Winnebrockstraße","house_number":" 1","lat":51.328385,"lon":9.480559970691736,"osm_id":130185941,"place_id":118152348,"postcode":"33790","city":"Halle/Westf.","Institutionskennzeichen":"260570022-03"},{"display_name":"Elisabeth Krankenhaus Kassel gGmbH","road":"Weinbergstr.","house_number":" 7","lat":51.13725145,"lon":9.540247466283805,"osm_id":151245482,"place_id":120352189,"postcode":"34117","city":"Kassel","Institutionskennzeichen":"260660895-00"},{"display_name":"AGAPLESION Diakonie-Kliniken Kassel gGmbH","road":"Herkulesstraße","house_number":" 34","lat":51.39806355,"lon":9.658171600355782,"osm_id":208502011,"place_id":137400793,"postcode":"34119","city":"Kassel","Institutionskennzeichen":"260660839-00"},{"display_name":"DRK-Kliniken Nordhessen Gemeinnützige GmbH, Kassel - Rotes Kreuz Krankenhaus Kassel gemeinnützige GmbH","road":"Hansteinstraße","house_number":" 29","lat":51.3115479,"lon":9.454291822855383,"osm_id":47994189,"place_id":97908709,"postcode":"34121","city":"Kassel-Wehlheiden","Institutionskennzeichen":"260620044-01"},{"display_name":"DRK-Kliniken Nordhessen Gemeinnützige GmbH, Kassel - Rotes Kreuz Krankenhaus Kassel gemeinnützige GmbH","road":"Pfarrstr.","house_number":" 19","lat":51.48745605,"lon":9.140771869755607,"osm_id":5587209,"place_id":235611364,"postcode":"34123","city":"Kassel-Bettenhausen","Institutionskennzeichen":"260620044-02"},{"display_name":"Klinikum Kassel GmbH","road":"Mönchebergstraße","house_number":" 41-43","lat":51.4650438,"lon":8.8440701,"osm_id":450924327,"place_id":4021720,"postcode":"34125","city":"Kassel","Institutionskennzeichen":"260620011-00"},{"display_name":"Marienkrankenhaus Kassel gGmbH - Marienkrankenhaus Kassel","road":"Marburger Str.","house_number":" 85","lat":51.3200138,"lon":9.191240899090523,"osm_id":95061469,"place_id":108313508,"postcode":"34127","city":"Kassel","Institutionskennzeichen":"260620066-01"},{"display_name":"Asklepios Kliniken Schwalm-Eder-GmbH - Klinikum Melsungen","road":"Kasseler Straße","house_number":" 80","lat":51.4150546,"lon":9.1209845,"osm_id":373256788,"place_id":3491674,"postcode":"34212","city":"Melsungen","Institutionskennzeichen":"260620556-02"},{"display_name":"Klinikum Hann. Münden GmbH","road":"Vogelsang","house_number":" 105","lat":51.39806355,"lon":9.658171600355782,"osm_id":208502011,"place_id":137400793,"postcode":"34346","city":"Hann. Münden","Institutionskennzeichen":"260300070-00"},{"display_name":"Klinikum Warburg GmbH","road":"Hüffertstraße","house_number":" 50","lat":51.48745605,"lon":9.140771869755607,"osm_id":5587209,"place_id":235611364,"postcode":"34414","city":"Warburg","Institutionskennzeichen":"260570384-00"},{"display_name":"St.-Marien-Hospital","road":"Marienstraße","house_number":" 2","lat":50.922048950000004,"lon":9.256298595332698,"osm_id":5467294,"place_id":235857512,"postcode":"34431","city":"Marsberg","Institutionskennzeichen":"260590709-00"},{"display_name":"Kreiskliniken Kassel GmbH - Kreisklinik Wolfhagen","road":"Am kleinen Ofenberg","house_number":" 1","lat":51.3200138,"lon":9.191240899090523,"osm_id":95061469,"place_id":108313508,"postcode":"34466","city":"Wolfhagen","Institutionskennzeichen":"260660862-02"},{"display_name":"Marienkrankenhaus Kassel gGmbH - St. Elisabeth-Krankenhaus","road":"Warburger Str.","house_number":" 6","lat":51.4150546,"lon":9.1209845,"osm_id":373256788,"place_id":3491674,"postcode":"34471","city":"Volkmarsen","Institutionskennzeichen":"260620066-02"},{"display_name":"Hospital zum Heiligen Geist gemeinnützige GmbH","road":"Am Hospital","house_number":" 6","lat":50.5794444,"lon":8.668888934920822,"osm_id":2812465,"place_id":235197252,"postcode":"34560","city":"Fritzlar","Institutionskennzeichen":"260620589-00"},{"display_name":"Asklepios Kliniken Schwalm-Eder-GmbH - Klinikum Schwalmstadt","road":"Krankenhausstraße","house_number":" 27","lat":50.922048950000004,"lon":9.256298595332698,"osm_id":5467294,"place_id":235857512,"postcode":"34613","city":"Schwalmstadt","Institutionskennzeichen":"260620556-01"},{"display_name":"Diakonie-Krankenhaus Wehrda","road":"Hebronberg","house_number":" 5","lat":50.5922772,"lon":8.649156839102563,"osm_id":102996907,"place_id":110225698,"postcode":"35041","city":"Marburg","Institutionskennzeichen":"260620475-00"},{"display_name":"DRK-Krankenhaus Biedenkopf","road":"Hainstraße","house_number":" 71 - 75","lat":50.60435885,"lon":8.384755714463296,"osm_id":25576510,"place_id":90864180,"postcode":"35216","city":"Biedenkopf","Institutionskennzeichen":"260620486-00"},{"display_name":"St. Josefs Krankenhaus Balserische Stiftung gGmbH","road":"Wilhelmstr.","house_number":" 7","lat":50.745882800000004,"lon":8.285216902590815,"osm_id":92134472,"place_id":105851697,"postcode":"35392","city":"Gießen","Institutionskennzeichen":"260610337-00"},{"display_name":"Universitätsklinikum Gießen und Marburg GmbH - Standort Gießen","road":"Rudolf-Buchheim-Straße","house_number":" 8","lat":50.485743049999996,"lon":8.252544549715257,"osm_id":744268830,"place_id":233517932,"postcode":"35392","city":"Gießen","Institutionskennzeichen":"260610279-00"},{"display_name":"Agaplesion Evangelisches Krankenhaus  - Mittelhessen","road":"Paul-Zipp-Straße","house_number":" 171","lat":50.5922772,"lon":8.649156839102563,"osm_id":102996907,"place_id":110225698,"postcode":"35398","city":"Gießen","Institutionskennzeichen":"260650369-01"},{"display_name":"Asklepios Klinik Lich GmbH","road":"Goethestraße","house_number":" 4","lat":50.547019250000005,"lon":9.706353742067865,"osm_id":1956239,"place_id":234809133,"postcode":"35423","city":"Lich","Institutionskennzeichen":"260611032-00"},{"display_name":"Lahn-Dill-Kliniken - Klinikum Wetzlar-Braunfels","road":"Forsthausstraße","house_number":" 1-3","lat":50.663155200000006,"lon":9.76719913805809,"osm_id":88724933,"place_id":105998099,"postcode":"35578","city":"Wetzlar","Institutionskennzeichen":"260610280-00"},{"display_name":"Kaiserin-Auguste-Victoria-Krankenhaus gGmbH","road":"Stegwiese","house_number":" 27","lat":50.99557865,"lon":9.721227646625,"osm_id":5347462,"place_id":235906741,"postcode":"35630","city":"Ehringshausen","Institutionskennzeichen":"260611076-00"},{"display_name":"Lahn-Dill-Kliniken - Klinikum Dillenburg","road":"Rotebergstraße","house_number":" 2","lat":50.8757566,"lon":9.7144001,"osm_id":1720508167,"place_id":17332308,"postcode":"35683","city":"Dillenburg","Institutionskennzeichen":"260611009-00"},{"display_name":"Kreiskrankenhaus Weilburg gGmbH","road":"Am Steinbühl","house_number":" 2","lat":50.485743049999996,"lon":8.252544549715257,"osm_id":744268830,"place_id":233517932,"postcode":"35781","city":"Weilburg","Institutionskennzeichen":"260611156-00"},{"display_name":"Klinikum Fulda gAG","road":"Pacelliallee","house_number":" 4","lat":51.54076285,"lon":9.943119665463037,"osm_id":360936754,"place_id":169039502,"postcode":"36043","city":"Fulda","Institutionskennzeichen":"260620157-00"},{"display_name":"Helios St. Elisabeth-Klinik - Hünfeld","road":"Schillerstraße","house_number":" 22","lat":51.54166745,"lon":9.942581231460068,"osm_id":421596006,"place_id":182201070,"postcode":"36088","city":"Hünfeld","Institutionskennzeichen":"260660258-00"},{"display_name":"Kreiskrankenhaus Rotenburg","road":"Kratzberg","house_number":" 1","lat":51.554423299999996,"lon":9.944636727008923,"osm_id":286720618,"place_id":155773224,"postcode":"36199","city":"Rotenburg","Institutionskennzeichen":"260620282-00"},{"display_name":"Klinikum Bad Hersfeld-Rotenburg - Klinikum Bad Hersfeld","road":"Seilerweg","house_number":" 29","lat":50.8757566,"lon":9.7144001,"osm_id":1720508167,"place_id":17332308,"postcode":"36251","city":"Bad Hersfeld","Institutionskennzeichen":"260620271-01"},{"display_name":"Eichhof-Stiftung Lauterbach - Krankenhaus Eichhof","road":"Eichhofstraße","house_number":" 1","lat":51.5166866,"lon":10.246733876549596,"osm_id":32594806,"place_id":94848644,"postcode":"36341","city":"Lauterbach","Institutionskennzeichen":"260611759-00"},{"display_name":"Klinikum Bad Salzungen GmbH","road":"Lindigallee","house_number":" 3","lat":51.7298077,"lon":9.978864297235258,"osm_id":356888305,"place_id":171101717,"postcode":"36433","city":"Bad Salzungen","Institutionskennzeichen":"261600042-00"},{"display_name":"AGAPLESION Krankenhaus Neu-Bethlehem gGmbH","road":"Humboldtallee","house_number":" 8","lat":51.54076285,"lon":9.943119665463037,"osm_id":360936754,"place_id":169039502,"postcode":"37073","city":"Göttingen","Institutionskennzeichen":"260311302-00"},{"display_name":"Evangelisches Krankenhaus Göttingen-Weende gGmbH","road":"Waldweg","house_number":" 9","lat":51.54166745,"lon":9.942581231460068,"osm_id":421596006,"place_id":182201070,"postcode":"37073","city":"Göttingen","Institutionskennzeichen":"260311051-00"},{"display_name":"Evangelisches Krankenhaus Göttingen-Weende gGmbH","road":"An der Lutter","house_number":" 24","lat":51.3469675,"lon":10.363237195970042,"osm_id":132791119,"place_id":118346187,"postcode":"37075","city":"Göttingen","Institutionskennzeichen":"260310447-00"},{"display_name":"St. Martini gGmbH Krankenhaus Duderstadt","road":"Göttinger Straße","house_number":" 34","lat":51.8339028,"lon":9.868696291742522,"osm_id":93791937,"place_id":108170857,"postcode":"37115","city":"Duderstadt","Institutionskennzeichen":"260310334-00"},{"display_name":"HELIOS Albert-Schweitzer-Klinik Northeim","road":"Albert-Schweitzer-Weg","house_number":" 1","lat":51.8735704,"lon":10.0271684,"osm_id":2201262050,"place_id":21795667,"postcode":"37154","city":"Northeim","Institutionskennzeichen":"260310595-00"},{"display_name":"Klinikum Werra-Meißner GmbH - Standort Eschwege","road":"Elsa-Bränd-Ström Straße","house_number":" 1 1","lat":51.834176,"lon":9.455544231733743,"osm_id":300445435,"place_id":158040190,"postcode":"37269","city":"Eschwege","Institutionskennzeichen":"260660873-01"},{"display_name":"Eichsfeld Klinikum gGmbH - Haus St. Vincenz","road":"Windisch Gasse","house_number":" 112","lat":51.78503145,"lon":9.365380828032954,"osm_id":31864353,"place_id":94713002,"postcode":"37308","city":"Heiligenstadt","Institutionskennzeichen":"261601010-01"},{"display_name":"Eichsfeld Klinikum gGmbH - Haus Reifenstein","road":"Klosterstr.","house_number":" 7","lat":52.258667450000004,"lon":10.545804166187503,"osm_id":147043803,"place_id":122049951,"postcode":"37355","city":"Reifenstein","Institutionskennzeichen":"261601010-02"},{"display_name":"Einbecker BürgerSpital GmbH","road":"Andershäuser Straße","house_number":" 8","lat":52.2329469,"lon":10.526276854743593,"osm_id":108139192,"place_id":109568123,"postcode":"37574","city":"Einbeck","Institutionskennzeichen":"260310345-00"},{"display_name":"HELIOS Klinik Bad Gandersheim","road":"Albert-Rohloff-Straße","house_number":" 2","lat":51.8735704,"lon":10.0271684,"osm_id":2201262050,"place_id":21795667,"postcode":"37581","city":"Bad Gandersheim","Institutionskennzeichen":"260310027-00"},{"display_name":"AGAPLESION Evangelisches Krankenhaus Holzminden gGmbH","road":"Forster Weg","house_number":" 34","lat":52.15454285,"lon":10.318241748242976,"osm_id":37349710,"place_id":96344218,"postcode":"37603","city":"Holzminden","Institutionskennzeichen":"260321714-00"},{"display_name":"Klinikum Weser-Egge - St.-Ansgar-Krankenhaus Höxter","road":"Brenkhäuser Straße","house_number":" 71","lat":52.04542575,"lon":10.371855581200236,"osm_id":2360874,"place_id":235560954,"postcode":"37671","city":"Höxter","Institutionskennzeichen":"260570351-01"},{"display_name":"Krankenhaus Marienstift gGmbH","road":"Helmstedter Straße","house_number":" 35","lat":52.179908,"lon":10.53365122423158,"osm_id":433814409,"place_id":183671684,"postcode":"38102","city":"Braunschweig","Institutionskennzeichen":"260310221-00"},{"display_name":"Städtisches Klinikum Braunschweig gGmbH","road":"Freisestraße","house_number":" 9/10","lat":52.2318762,"lon":10.999309077774718,"osm_id":5442370,"place_id":235827401,"postcode":"38118","city":"Braunschweig","Institutionskennzeichen":"260310209-00"},{"display_name":"Herzogin-Elisabeth-Hospital","road":"Leipziger Straße","house_number":" 24","lat":52.4134191,"lon":10.768389846070821,"osm_id":25544311,"place_id":91784981,"postcode":"38124","city":"Braunschweig","Institutionskennzeichen":"260310243-00"},{"display_name":"Venenzentrum Braunschweig GmbH","road":"Wolfenbütteler Straße","house_number":" 41","lat":52.497115,"lon":10.548373907518798,"osm_id":1920930,"place_id":235706450,"postcode":"38124","city":"Braunschweig","Institutionskennzeichen":"260310959-00"},{"display_name":"HELIOS Klinikum Salzgitter GmbH","road":"Kattowitzer Straße","house_number":" 191","lat":51.9275089,"lon":10.442531047602472,"osm_id":77385076,"place_id":104208972,"postcode":"38226","city":"Salzgitter","Institutionskennzeichen":"260310686-00"},{"display_name":"St. Elisabeth-Krankenhaus Salzgitter gGmbH","road":"Liebenhaller Straße","house_number":" 20","lat":51.883028350000004,"lon":10.216044965183173,"osm_id":93194344,"place_id":107161967,"postcode":"38259","city":"Salzgitter","Institutionskennzeichen":"260310664-00"},{"display_name":"Städtisches Klinikum Wolfenbüttel gGmbH","road":"Alter Weg","house_number":" 80","lat":51.90131645,"lon":11.054321166346345,"osm_id":24547406,"place_id":91831737,"postcode":"38302","city":"Wolfenbüttel","Institutionskennzeichen":"260310744-00"},{"display_name":"HELIOS St. Marienberg Klinik Helmstedt","road":"Conringstraße","house_number":" 26","lat":51.83567975,"lon":10.774942077583763,"osm_id":1739312,"place_id":235517728,"postcode":"38350","city":"Helmstedt","Institutionskennzeichen":"260310539-00"},{"display_name":"Klinikum Wolfsburg","road":"Sauerbruchstraße","house_number":" 7","lat":52.4134191,"lon":10.768389846070821,"osm_id":25544311,"place_id":91784981,"postcode":"38440","city":"Wolfsburg","Institutionskennzeichen":"260310766-00"},{"display_name":"HELIOS Klinikum Gifhorn GmbH","road":"Campus","house_number":" 6","lat":52.1371303,"lon":11.600084988916507,"osm_id":22975608,"place_id":90754685,"postcode":"38518","city":"Gifhorn","Institutionskennzeichen":"260310367-00"},{"display_name":"Asklepios Harzkliniken GmbH","road":"Kösliner Straße","house_number":" 12","lat":52.1019596,"lon":11.6198087,"osm_id":436629202,"place_id":3949017,"postcode":"38642","city":"Goslar","Institutionskennzeichen":"260310469-00"},{"display_name":"Asklepios Kliniken Seesen","road":"Karl-Herold-Straße","house_number":" 1","lat":52.15751695,"lon":11.582028917145578,"osm_id":25939200,"place_id":90858328,"postcode":"38723","city":"Seesen","Institutionskennzeichen":"260311006-00"},{"display_name":"AMEOS Klinikum St. Salvator Halberstadt GmbH","road":"Gleimstraße","house_number":" 5","lat":51.90131645,"lon":11.054321166346345,"osm_id":24547406,"place_id":91831737,"postcode":"38820","city":"Halberstadt","Institutionskennzeichen":"261530252-00"},{"display_name":"Harzklinikum Dorothea Christiane Erxleben GmbH - Blankenburg - KH Wernigerode","road":"Ilsenburger Str.","house_number":" 15","lat":51.96027345,"lon":12.094440250470138,"osm_id":631997036,"place_id":214132112,"postcode":"38855","city":"Wernigerode","Institutionskennzeichen":"261500984-02"},{"display_name":"Klinik St. Marienstift Magdeburg","road":"Harsdorfer Straße","house_number":" 30","lat":52.2857181,"lon":11.376913214157273,"osm_id":90501896,"place_id":106872569,"postcode":"39110","city":"Magdeburg","Institutionskennzeichen":"261530183-00"},{"display_name":"Otto-von-Guericke-Universität Magdeburg - Universitätsklinikum Magdeburg","road":"Leipziger Straße","house_number":" 44","lat":52.0661858,"lon":11.190792131468804,"osm_id":253873718,"place_id":147754969,"postcode":"39120","city":"Magdeburg","Institutionskennzeichen":"261500289-00"},{"display_name":"Klinikum Magdeburg gGmbH","road":"Birkenallee","house_number":" 34","lat":51.85279875,"lon":11.592315513408092,"osm_id":32647098,"place_id":94052867,"postcode":"39130","city":"Magdeburg","Institutionskennzeichen":"261500597-00"},{"display_name":"HELIOS Klinik Zerbst / Anhalt GmbH","road":"Friedrich-Naumann-Straße","house_number":" 53","lat":51.96027345,"lon":12.094440250470138,"osm_id":631997036,"place_id":214132112,"postcode":"39261","city":"Zerbst/Anhalt","Institutionskennzeichen":"261500198-00"},{"display_name":"AMEOS Klinikum Haldensleben","road":"Kiefholzstraße","house_number":" 27","lat":51.213210849999996,"lon":6.773057660453232,"osm_id":396697731,"place_id":177380879,"postcode":"39340","city":"Haldensleben","Institutionskennzeichen":"261501008-00"},{"display_name":"HELIOS Bördeklinik GmbH Oschersleben/ OT Neindorf","road":"Kreiskrankenhaus","house_number":" 4","lat":51.19596785,"lon":6.789820794823264,"osm_id":1464095,"place_id":235614852,"postcode":"39387","city":"Oschersleben OT Neindorf","Institutionskennzeichen":"261500132-00"},{"display_name":"AMEOS Klinikum Aschersleben Staßfurt GmbH - Klinikum Staßfurt","road":"Bodestr.","house_number":" 11","lat":51.2347233,"lon":6.8208559,"osm_id":5639231379,"place_id":64841666,"postcode":"39418","city":"Staßfurt","Institutionskennzeichen":"261500358-02"},{"display_name":"Johanniter KH Genthin - Stendal gGmbH - Stendal - KH Stendal","road":"Wendstraße","house_number":" 31","lat":51.235961399999994,"lon":6.785556772058095,"osm_id":106299660,"place_id":110286115,"postcode":"39576","city":"Stendal","Institutionskennzeichen":"261500030-00"},{"display_name":"AGAPLESION Diakoniekrankenhaus Seehausen gGmbH","road":"Dr. Albert Steinert Platz","house_number":" 1","lat":51.3003466,"lon":6.7493957,"osm_id":4734082621,"place_id":57084360,"postcode":"39615","city":"Seehausen","Institutionskennzeichen":"261530014-00"},{"display_name":"Altmark-Klinikum gGmbH - KH Gardelegen","road":"Ernst-von-Bergmann-Str.","house_number":" 22","lat":51.231509,"lon":6.7274334,"osm_id":4742753641,"place_id":57284349,"postcode":"39638","city":"Gardelegen","Institutionskennzeichen":"261500290-01"},{"display_name":"Evangelisches Krankenhaus Düsseldorf","road":"Kirchfeldstraße","house_number":" 40","lat":51.1524288,"lon":6.8709642,"osm_id":4795066199,"place_id":58201419,"postcode":"40217","city":"Düsseldorf","Institutionskennzeichen":"260510132-00"},{"display_name":"Universitätsklinikum Düsseldorf","road":"Moorenstraße","house_number":" 5","lat":51.2432213,"lon":6.856136021660349,"osm_id":23204777,"place_id":91956987,"postcode":"40225","city":"Düsseldorf","Institutionskennzeichen":"260510018-00"},{"display_name":"Luisenkrankenhaus GmbH & Co. KG","road":"Luise-Rainer-Straße","house_number":" 6-10","lat":51.2347233,"lon":6.8208559,"osm_id":5639231379,"place_id":64841666,"postcode":"40235","city":"Düsseldorf","Institutionskennzeichen":"260512112-00"},{"display_name":"Marien Hospital Düsseldorf","road":"Rochusstraße","house_number":" 2","lat":51.13010775,"lon":6.942579266109529,"osm_id":5445447,"place_id":235858888,"postcode":"40479","city":"Düsseldorf","Institutionskennzeichen":"260510096-00"},{"display_name":"Florence-Nightingale-Krankenhaus - Kaiserswerther Diakonie","road":"Kreuzbergstraße","house_number":" 79","lat":51.25059525,"lon":6.970018746076766,"osm_id":26244980,"place_id":92041637,"postcode":"40489","city":"Düsseldorf","Institutionskennzeichen":"260510121-00"},{"display_name":"Schön Klinik Düsseldorf","road":"Am Heerdter Krankenhaus","house_number":" 2","lat":51.300208600000005,"lon":6.852477618981415,"osm_id":97700925,"place_id":107564267,"postcode":"40549","city":"Düsseldorf","Institutionskennzeichen":"260500254-00"},{"display_name":"Sana Kliniken Düsseldorf - Sana Krankenhaus Benrath","road":"Urdenbacher Allee","house_number":" 83","lat":51.1524288,"lon":6.8709642,"osm_id":4795066199,"place_id":58201419,"postcode":"40593","city":"Düsseldorf","Institutionskennzeichen":"260510029-02"},{"display_name":"St. Martinus Krankenhaus","road":"Klosterstraße","house_number":" 32","lat":51.13010775,"lon":6.942579266109529,"osm_id":5445447,"place_id":235858888,"postcode":"40764","city":"Langenfeld","Institutionskennzeichen":"260511111-00"},{"display_name":"Evgl. Krankenhaus Mettmann GmbH","road":"Gartenstraße","house_number":" 4-8","lat":51.25059525,"lon":6.970018746076766,"osm_id":26244980,"place_id":92041637,"postcode":"40822","city":"Mettmann","Institutionskennzeichen":"260511144-00"},{"display_name":"St. Marien-Krankenhaus","road":"Werdener Straße","house_number":" 3","lat":51.2132764,"lon":6.658879502584815,"osm_id":784582241,"place_id":281367029,"postcode":"40878","city":"Ratingen","Institutionskennzeichen":"260511166-00"},{"display_name":"Johanniter GmbH Ev. Krankenhaus 'Bethesda' Mönchengladbach","road":"Ludwig-Weber-Straße","house_number":" 15","lat":51.1915915,"lon":6.671590753481393,"osm_id":23010744,"place_id":89626552,"postcode":"41061","city":"Mönchengladbach","Institutionskennzeichen":"260510699-00"},{"display_name":"Krankenhaus St. Franziskus","road":"Viersener Straße","house_number":" 450","lat":51.09111225,"lon":6.593732062056741,"osm_id":138102202,"place_id":117473948,"postcode":"41063","city":"Mönchengladbach","Institutionskennzeichen":"260510666-00"},{"display_name":"Krankenhaus Neuwerk - Maria von den Aposteln","road":"Dünner Straße","house_number":" 214-216","lat":51.072616,"lon":6.808706252525754,"osm_id":32007177,"place_id":95601104,"postcode":"41066","city":"Mönchengladbach","Institutionskennzeichen":"260511770-00"},{"display_name":"Städt. Krankenhaus Nettetal GmbH","road":"Sassenfelder Kirchweg","house_number":" 1","lat":51.0749734,"lon":6.3128864,"osm_id":6819710155,"place_id":78258932,"postcode":"41334","city":"Nettetal","Institutionskennzeichen":"260511359-00"},{"display_name":"Johanna-Etienne-Krankenhaus gGmbH - St-Augustinus Kliniken gGmbH","road":"Am Hasenberg","house_number":" 46","lat":51.26768975,"lon":7.130729053076792,"osm_id":398121867,"place_id":177666531,"postcode":"41462","city":"Neuss","Institutionskennzeichen":"260511280-00"},{"display_name":"Städtische Kliniken Neuss - Lukaskrankenhaus","road":"Preussenstraße","house_number":" 84","lat":51.275261900000004,"lon":7.173912999528719,"osm_id":24678195,"place_id":91559368,"postcode":"41464","city":"Neuss","Institutionskennzeichen":"260511781-00"},{"display_name":"Rhein-Kreis Neuss Kliniken GmbH - Kreiskrankenhaus Grevenbroich St. Elisabeth","road":"Von-Werth-Straße","house_number":" 5","lat":51.09111225,"lon":6.593732062056741,"osm_id":138102202,"place_id":117473948,"postcode":"41515","city":"Grevenbroich","Institutionskennzeichen":"260511257-01"},{"display_name":"Kreiskrankenhaus Dormagen","road":"Dr.-Geldmacher-Straße","house_number":" 20","lat":51.072616,"lon":6.808706252525754,"osm_id":32007177,"place_id":95601104,"postcode":"41540","city":"Dormagen","Institutionskennzeichen":"260511667-00"},{"display_name":"Hermann-Josef-Krankenhaus Erkelenz","road":"Tenholter Straße","house_number":" 43","lat":51.0749734,"lon":6.3128864,"osm_id":6819710155,"place_id":78258932,"postcode":"41812","city":"Erkelenz","Institutionskennzeichen":"260530966-00"},{"display_name":"AGAPLESION BETHESDA KRANKENHAUS WUPPERTAL gGmbH","road":"Hainstraße","house_number":" 35","lat":51.1544417,"lon":6.984438428766351,"osm_id":107275179,"place_id":111800263,"postcode":"42109","city":"Wuppertal","Institutionskennzeichen":"260510940-00"},{"display_name":"HELIOS Klinikum Wuppertal - Standort Barmen","road":"Heusnerstraße","house_number":" 40","lat":51.1988702,"lon":7.020833673431381,"osm_id":89421537,"place_id":106028164,"postcode":"42283","city":"Wuppertal","Institutionskennzeichen":"260510906-01"},{"display_name":"Sana Krankenhaus Radevormwald gGmbH","road":"Siepenstraße","house_number":" 33","lat":51.1345941,"lon":7.222588473198234,"osm_id":1987280,"place_id":235546828,"postcode":"42477","city":"Radevormwald","Institutionskennzeichen":"260531104-00"},{"display_name":"Helios Klinikum Niederberg gGmbH","road":"Robert-Koch-Straße","house_number":" 2","lat":51.5079809,"lon":7.4569014,"osm_id":370769793,"place_id":3436620,"postcode":"42549","city":"Velbert","Institutionskennzeichen":"260512032-00"},{"display_name":"St. Lukas Klinik GmbH","road":"Schwanenstraße","house_number":" 132","lat":51.5340333,"lon":7.4541199,"osm_id":5678444560,"place_id":66611271,"postcode":"42697","city":"Solingen","Institutionskennzeichen":"260510882-00"},{"display_name":"St. Josef Krankenhaus Haan","road":"Robert-Koch-Straße","house_number":" 16","lat":51.4851095,"lon":7.505366015678836,"osm_id":30917978,"place_id":93277351,"postcode":"42781","city":"Haan","Institutionskennzeichen":"260511769-00"},{"display_name":"Sana-Klinikum Remscheid GmbH","road":"Burger Straße","house_number":" 211","lat":51.51985415,"lon":7.533329154471999,"osm_id":53792435,"place_id":101692700,"postcode":"42859","city":"Remscheid","Institutionskennzeichen":"260510826-00"},{"display_name":"Krankenhaus Wermelskirchen GmbH","road":"Königstraße","house_number":" 100","lat":51.52421004999999,"lon":7.367705783560391,"osm_id":757520095,"place_id":234893787,"postcode":"42929","city":"Wermelskirchen","Institutionskennzeichen":"260531193-00"},{"display_name":"Klinikum Dortmund gGmbH - Klinikzentrum Mitte","road":"Beurhausstraße","house_number":" 40","lat":51.5079809,"lon":7.4569014,"osm_id":370769793,"place_id":3436620,"postcode":"44137","city":"Dortmund","Institutionskennzeichen":"260590139-01"},{"display_name":"Klinikum Dortmund gGmbH - Klinikzentrum Nord","road":"Münsterstraße","house_number":" 240","lat":51.54686065,"lon":7.315390799343724,"osm_id":767846869,"place_id":275134910,"postcode":"44145","city":"Dortmund","Institutionskennzeichen":"260590139-02"},{"display_name":"St.-Josefs-Hospital Hörde","road":"Wilhelm-Schmidt-Straße","house_number":" 4","lat":51.567735150000004,"lon":7.319733970900202,"osm_id":767846870,"place_id":275134911,"postcode":"44263","city":"Dortmund-Hörde","Institutionskennzeichen":"260590208-00"},{"display_name":"Klinikum Westfalen GmbH - Knappschaftskrankenhaus Dortmund","road":"Am Knappschaftskrankenhaus","house_number":" 1","lat":51.53391705,"lon":7.230054314431452,"osm_id":372180307,"place_id":172048716,"postcode":"44309","city":"Dortmund","Institutionskennzeichen":"260591619-01"},{"display_name":"Katholische St. Lukas Gesellschaft - Katholisches Krankenhaus Dortmund-West","road":"Zollernstraße","house_number":" 40","lat":51.528622999999996,"lon":7.22658694606052,"osm_id":372167726,"place_id":171506782,"postcode":"44379","city":"Dortmund","Institutionskennzeichen":"260590219-01"},{"display_name":"Katholisches Klinikum Lünen/Werne GmbH - St.-Marien-Hospital - Klinikum Lünen","road":"Altstadtstraße","house_number":" 23","lat":51.5429012,"lon":7.26116931201803,"osm_id":124212492,"place_id":115315606,"postcode":"44534","city":"Lünen","Institutionskennzeichen":"260591506-01"},{"display_name":"Klinikum Westfalen GmbH - Klinik am Park Lünen","road":"Brechtener Straße","house_number":" 59","lat":51.59007315,"lon":7.4422616849594725,"osm_id":9237389,"place_id":236258967,"postcode":"44536","city":"Lünen","Institutionskennzeichen":"260591619-02"},{"display_name":"Katholische St. Lukas Gesellschaft - St. Rochus-Hospital - Castrop Rauxel","road":"Glückaufstr.","house_number":" 10","lat":51.54686065,"lon":7.315390799343724,"osm_id":767846869,"place_id":275134910,"postcode":"44575","city":"Castrop-Rauxel","Institutionskennzeichen":"260590219-02"},{"display_name":"Evangelisches Krankenhaus Castrop-Rauxel","road":"Grutholzallee","house_number":" 21","lat":51.4827349,"lon":7.221406072822887,"osm_id":181221215,"place_id":128685734,"postcode":"44577","city":"Castrop-Rauxel","Institutionskennzeichen":"260550574-00"},{"display_name":"Evangelisches Krankenhaus Herne - Mitte","road":"Wiescherstraße","house_number":" 24","lat":51.4682836,"lon":7.2111972582935016,"osm_id":96073900,"place_id":107729798,"postcode":"44623","city":"Herne","Institutionskennzeichen":"260590505-01"},{"display_name":"Marienhospital Herne - Universitätsklinikum der Ruhr Universität Bochum","road":"Hölkeskampring","house_number":" 40","lat":51.4851249,"lon":7.2237957575005725,"osm_id":96723373,"place_id":106507017,"postcode":"44625","city":"Herne","Institutionskennzeichen":"260590457-01"},{"display_name":"Marienhospital Herne - Universitätsklinikum der Ruhr Universität Bochum - Klinik für Kinderchirurgie","road":"Widumer Str.","house_number":" 8","lat":51.492135250000004,"lon":7.230112403372554,"osm_id":97115387,"place_id":106611033,"postcode":"44627","city":"Herne","Institutionskennzeichen":"260590457-02"},{"display_name":"St.-Anna-Hospital","road":"Hospitalstraße","house_number":" 19","lat":51.483676349999996,"lon":7.140295811504291,"osm_id":10413383,"place_id":236552557,"postcode":"44649","city":"Herne","Institutionskennzeichen":"260590468-00"},{"display_name":"Evangelisches Krankenhaus Herne - Eickel","road":"Hordeler Straße","house_number":" 2","lat":51.482562200000004,"lon":7.143205102458307,"osm_id":203032581,"place_id":134470088,"postcode":"44651","city":"Herne","Institutionskennzeichen":"260590505-02"},{"display_name":"Katholisches Klinikum Bochum - St. Elisabeth-Hospital Bochum","road":"Bleichstraße","house_number":" 15","lat":51.42629785,"lon":7.157585016736373,"osm_id":4832265,"place_id":82059218,"postcode":"44787","city":"Bochum","Institutionskennzeichen":"260590071-02"},{"display_name":"BG Universitätsklinikum Bergmannsheil GmbH","road":"Bürkle-de-la-Camp-Platz","house_number":" 1","lat":51.42378465,"lon":7.158072737904854,"osm_id":98016640,"place_id":107332672,"postcode":"44789","city":"Bochum","Institutionskennzeichen":"260590037-00"},{"display_name":"Augusta-Kranken-Anstalt gGmbH - Bochum Mitte","road":"Bergstraße","house_number":" 26","lat":51.4640424,"lon":7.327198735155829,"osm_id":571838954,"place_id":205269765,"postcode":"44791","city":"Bochum","Institutionskennzeichen":"260590106-01"},{"display_name":"Katholisches Klinikum Bochum - St. Josef-Hospital - Bochum","road":"Gudrunstraße","house_number":" 56","lat":51.42623705,"lon":7.007627003459746,"osm_id":26643912,"place_id":91321697,"postcode":"44791","city":"Bochum","Institutionskennzeichen":"260590071-01"},{"display_name":"Katholisches Klinikum Bochum - Marien-Hospital Wattenscheid","road":"Parkstraße","house_number":" 15","lat":51.441625099999996,"lon":7.03044899155328,"osm_id":56208710,"place_id":101173476,"postcode":"44866","city":"Bochum-Wattenscheid","Institutionskennzeichen":"260590071-05"},{"display_name":"Martin-Luther-Krankenhaus gGmbH - Wattenscheid","road":"Voedestraße","house_number":" 79","lat":51.444862400000005,"lon":7.033288469337362,"osm_id":447101,"place_id":235618924,"postcode":"44866","city":"Bochum","Institutionskennzeichen":"260590128-01"},